{
  "generated": "2026-06-30T17:00:24Z",
  "count": 272,
  "networks": [
    "Circle K",
    "Emsi",
    "Neste"
  ],
  "stations": [
    {
      "network": "Emsi",
      "address": "Klevų g. 15, Plungė, Lietuva",
      "city": "",
      "lat": 55.904329,
      "lon": 21.862935,
      "source": "wpgmza"
    },
    {
      "network": "Emsi",
      "address": "Antakalnio gatvė 63, Vilnius, Lietuva",
      "city": "",
      "lat": 54.712396,
      "lon": 25.316465,
      "source": "wpgmza"
    },
    {
      "network": "Emsi",
      "address": "Žirmūnų gatvė 117, Vilnius, Lietuva",
      "city": "",
      "lat": 54.724361,
      "lon": 25.3044,
      "source": "wpgmza"
    },
    {
      "network": "Emsi",
      "address": "Kaunas, Kauno apskritis, Lietuva",
      "city": "",
      "lat": 54.898521,
      "lon": 23.903596,
      "source": "wpgmza"
    },
    {
      "network": "Emsi",
      "address": "Utena, Utenos apskritis, Lietuva",
      "city": "",
      "lat": 55.50004,
      "lon": 25.609385,
      "source": "wpgmza"
    },
    {
      "network": "Emsi",
      "address": "Lukiškių gatvė 5, Vilnius, Lietuva",
      "city": "",
      "lat": 54.693055,
      "lon": 25.268165,
      "source": "wpgmza"
    },
    {
      "network": "Emsi",
      "address": "Gluosnių g. 4a, Šilutė, Klaipėdos apskritis, Lietuva",
      "city": "",
      "lat": 55.349229,
      "lon": 21.468518,
      "source": "wpgmza"
    },
    {
      "network": "Emsi",
      "address": "Ūdrijos g. 2, Alytus, Lietuva",
      "city": "",
      "lat": 54.408331,
      "lon": 24.01636,
      "source": "wpgmza"
    },
    {
      "network": "Emsi",
      "address": "Žemaičių g. 34, Ariogala, Raseinių sen.",
      "city": "",
      "lat": 55.265001,
      "lon": 23.467125,
      "source": "wpgmza"
    },
    {
      "network": "Emsi",
      "address": "Jaunimo g. 2A, Biržai, Biržų rajono savivaldybė, Lietuva",
      "city": "",
      "lat": 56.207704,
      "lon": 24.77073,
      "source": "wpgmza"
    },
    {
      "network": "Emsi",
      "address": "Paukštininkų g. 4, Kaišiadorys, Kaišiadorių rajono savivaldybė, Lietuva",
      "city": "",
      "lat": 54.863556,
      "lon": 24.438794,
      "source": "wpgmza"
    },
    {
      "network": "Emsi",
      "address": "Emsi, Dirbtuvių gatvė, Gudiena, Kaišiadorių rajono savivaldybė, Lietuva",
      "city": "",
      "lat": 54.865313,
      "lon": 24.588554,
      "source": "wpgmza"
    },
    {
      "network": "Emsi",
      "address": "130 17, Ilgakiemis 53288, Lietuva",
      "city": "",
      "lat": 54.780134,
      "lon": 23.877131,
      "source": "wpgmza"
    },
    {
      "network": "Emsi",
      "address": "55.711836, 21.265073",
      "city": "",
      "lat": 55.711836,
      "lon": 21.265073,
      "source": "wpgmza"
    },
    {
      "network": "Emsi",
      "address": "55.790381, 21.141689",
      "city": "",
      "lat": 55.790381,
      "lon": 21.141689,
      "source": "wpgmza"
    },
    {
      "network": "Emsi",
      "address": "Minijos g. 154a, Klaipėda, Klaipėdos apskritis, Lietuva",
      "city": "",
      "lat": 55.668911,
      "lon": 21.158973,
      "source": "wpgmza"
    },
    {
      "network": "Emsi",
      "address": "EMSI, Lazdijų rajono savivaldybė, Lietuva",
      "city": "",
      "lat": 54.175561,
      "lon": 23.481046,
      "source": "wpgmza"
    },
    {
      "network": "Emsi",
      "address": "Sodų g. 3A, Lentvaris, Lietuva",
      "city": "",
      "lat": 54.643334,
      "lon": 25.05355,
      "source": "wpgmza"
    },
    {
      "network": "Emsi",
      "address": "Stoties g. 6b, Marijampolė, Marijampolės apskritis, Lietuva",
      "city": "",
      "lat": 54.565209,
      "lon": 23.368721,
      "source": "wpgmza"
    },
    {
      "network": "Emsi",
      "address": "Pasieniečių g. 3, Medininkai",
      "city": "",
      "lat": 54.549881,
      "lon": 25.678005,
      "source": "wpgmza"
    },
    {
      "network": "Emsi",
      "address": "Ramygalos g. 186a, Panevėžys, Panevėžio apskritis, Lietuva",
      "city": "",
      "lat": 55.709913,
      "lon": 24.372552,
      "source": "wpgmza"
    },
    {
      "network": "Emsi",
      "address": "Nemuno g. 79a, Panevėžys, Panevėžio apskritis, Lietuva",
      "city": "",
      "lat": 55.731076,
      "lon": 24.341052,
      "source": "wpgmza"
    },
    {
      "network": "Emsi",
      "address": "55.906239, 24.338865",
      "city": "",
      "lat": 55.906239,
      "lon": 24.338865,
      "source": "wpgmza"
    },
    {
      "network": "Emsi",
      "address": "S. Nėries g. 38, Pilviškiai, Vilkaviškis, Lietuva",
      "city": "",
      "lat": 54.663808,
      "lon": 23.029367,
      "source": "wpgmza"
    },
    {
      "network": "Emsi",
      "address": "Ukmergės g. 437, Vilnius, Vilniaus apskritis 14183, Lietuva",
      "city": "",
      "lat": 54.753512,
      "lon": 25.211742,
      "source": "wpgmza"
    },
    {
      "network": "Emsi",
      "address": "Neravai 02300, Lietuva",
      "city": "",
      "lat": 54.671066,
      "lon": 25.117689,
      "source": "wpgmza"
    },
    {
      "network": "Emsi",
      "address": "Jeruzalės g. 2, Vilnius, Vilniaus apskritis, Lietuva",
      "city": "",
      "lat": 54.739851,
      "lon": 25.276131,
      "source": "wpgmza"
    },
    {
      "network": "Emsi",
      "address": "Kareivių g. 4, Vilnius, Lietuva",
      "city": "",
      "lat": 54.717885,
      "lon": 25.295762,
      "source": "wpgmza"
    },
    {
      "network": "Emsi",
      "address": "Laisvės pr. 80b, Vilnius, Vilniaus apskritis, Lietuva",
      "city": "",
      "lat": 54.723392,
      "lon": 25.232888,
      "source": "wpgmza"
    },
    {
      "network": "Emsi",
      "address": "Liepkalnio g. 112a, Vilnius, Vilniaus apskritis, Lietuva",
      "city": "",
      "lat": 54.654868,
      "lon": 25.302985,
      "source": "wpgmza"
    },
    {
      "network": "Emsi",
      "address": "Pajautos g. 31, Vilnius, Vilniaus apskritis, Lietuva",
      "city": "",
      "lat": 54.710396,
      "lon": 25.166804,
      "source": "wpgmza"
    },
    {
      "network": "Emsi",
      "address": "Savanorių pr. 225, Vilnius, Lietuva",
      "city": "",
      "lat": 54.64091,
      "lon": 25.184263,
      "source": "wpgmza"
    },
    {
      "network": "Emsi",
      "address": "Trakų vokė, Vilnius",
      "city": "",
      "lat": 54.62384,
      "lon": 25.111265,
      "source": "wpgmza"
    },
    {
      "network": "Emsi",
      "address": "Aukštieji Semeniukai, 21401 Trakų r. sav., Lietuva",
      "city": "",
      "lat": 54.709552,
      "lon": 24.999824,
      "source": "wpgmza"
    },
    {
      "network": "Emsi",
      "address": "54.83562479598047, 25.460384977050126",
      "city": "",
      "lat": 54.835625,
      "lon": 25.460385,
      "source": "wpgmza"
    },
    {
      "network": "Emsi",
      "address": "54.622787, 25.105291",
      "city": "",
      "lat": 54.622787,
      "lon": 25.105291,
      "source": "wpgmza"
    },
    {
      "network": "Emsi",
      "address": "Ateities pl. 40B, Kaunas, Lithuania",
      "city": "",
      "lat": 54.921892,
      "lon": 24.047439,
      "source": "wpgmza"
    },
    {
      "network": "Emsi",
      "address": "Liuksemburgo akl. 27, Kaunas",
      "city": "",
      "lat": 54.859352,
      "lon": 23.83696,
      "source": "wpgmza"
    },
    {
      "network": "Emsi",
      "address": "Žemaičių g. 30c, Ariogala, Kauno apskritis, Lithuania",
      "city": "",
      "lat": 55.260783,
      "lon": 23.489305,
      "source": "wpgmza"
    },
    {
      "network": "Emsi",
      "address": "Palemono g. 3A, Kaunas, Lithuania",
      "city": "",
      "lat": 54.901009,
      "lon": 24.031254,
      "source": "wpgmza"
    },
    {
      "network": "Emsi",
      "address": "Taikos prospektas 124, Klaipėda, Lithuania",
      "city": "",
      "lat": 55.661398,
      "lon": 21.176028,
      "source": "wpgmza"
    },
    {
      "network": "Emsi",
      "address": "Kauno g. 165, Marijampolė, Lithuania",
      "city": "",
      "lat": 54.592791,
      "lon": 23.389471,
      "source": "wpgmza"
    },
    {
      "network": "Emsi",
      "address": "Europos g. 11, Lithuania",
      "city": "",
      "lat": 54.558184,
      "lon": 23.275133,
      "source": "wpgmza"
    },
    {
      "network": "Emsi",
      "address": "Sodų g. 3, Lentvaris, Lietuva",
      "city": "",
      "lat": 54.643382,
      "lon": 25.053213,
      "source": "wpgmza"
    },
    {
      "network": "Emsi",
      "address": "56.063674, 24.426118",
      "city": "",
      "lat": 56.063674,
      "lon": 24.426118,
      "source": "wpgmza"
    },
    {
      "network": "Emsi",
      "address": "Dirbtuvių g. 2, Gudiena, Kauno apskritis",
      "city": "",
      "lat": 54.868863,
      "lon": 24.476608,
      "source": "wpgmza"
    },
    {
      "network": "Emsi",
      "address": "54.7077495909732, 24.996165800839663",
      "city": "",
      "lat": 54.70775,
      "lon": 24.996166,
      "source": "wpgmza"
    },
    {
      "network": "Emsi",
      "address": "Kėdainių r. sav. 58212, Lietuva",
      "city": "",
      "lat": 55.202482,
      "lon": 23.626582,
      "source": "wpgmza"
    },
    {
      "network": "Emsi",
      "address": "Savanorių g. 5, Varėna, Lietuva",
      "city": "",
      "lat": 54.210237,
      "lon": 24.576496,
      "source": "wpgmza"
    },
    {
      "network": "Emsi",
      "address": "140, Aržuolupiai, Marijampolės apskritis 71107, Lietuva",
      "city": "",
      "lat": 54.953272,
      "lon": 23.083431,
      "source": "wpgmza"
    },
    {
      "network": "Emsi",
      "address": "28 Muitinės gatvė, Jurbarkas 74111, Lietuva",
      "city": "",
      "lat": 55.077558,
      "lon": 22.74898,
      "source": "wpgmza"
    },
    {
      "network": "Emsi",
      "address": "S. Daukanto g. 66, Jurbarkas, Tauragės apskritis, Lietuva",
      "city": "",
      "lat": 55.082776,
      "lon": 22.776673,
      "source": "wpgmza"
    },
    {
      "network": "Emsi",
      "address": "Knygnešių g. 9, Jurbarkas, Tauragės apskritis, Lietuva",
      "city": "",
      "lat": 55.087389,
      "lon": 22.747097,
      "source": "wpgmza"
    },
    {
      "network": "Emsi",
      "address": "14 137, Gelgaudiškio seniūnija, Marijampolės apskritis 71435, Lietuva",
      "city": "",
      "lat": 55.017681,
      "lon": 22.986397,
      "source": "wpgmza"
    },
    {
      "network": "Emsi",
      "address": "E67, 58111, Lietuva",
      "city": "",
      "lat": 55.304501,
      "lon": 24.091973,
      "source": "wpgmza"
    },
    {
      "network": "Emsi",
      "address": "Nemuno g. 63a, Kiduliai",
      "city": "",
      "lat": 55.06373,
      "lon": 22.78052,
      "source": "wpgmza"
    },
    {
      "network": "Emsi",
      "address": "Giedručiai 71124, Lithuania",
      "city": "",
      "lat": 54.954054,
      "lon": 23.024608,
      "source": "wpgmza"
    },
    {
      "network": "Emsi",
      "address": "Rūdos k., LT-70313",
      "city": "",
      "lat": 54.601951,
      "lon": 23.195148,
      "source": "wpgmza"
    },
    {
      "network": "Emsi",
      "address": "S. Šimkaus g. 69, Seredžius, Seredžiaus sen.",
      "city": "",
      "lat": 55.078918,
      "lon": 23.39694,
      "source": "wpgmza"
    },
    {
      "network": "Emsi",
      "address": "Sembos g. 5, Šiauliai, Lithuania",
      "city": "",
      "lat": 55.895367,
      "lon": 23.276915,
      "source": "wpgmza"
    },
    {
      "network": "Emsi",
      "address": "Miško g. 62, Radviliškis, Lithuania",
      "city": "",
      "lat": 55.802003,
      "lon": 23.563835,
      "source": "wpgmza"
    },
    {
      "network": "Emsi",
      "address": "Vasario 16-osios gatvė 70, Jonava, Lithuania",
      "city": "",
      "lat": 55.071207,
      "lon": 24.257898,
      "source": "wpgmza"
    },
    {
      "network": "Emsi",
      "address": "55.670168, 24.346048",
      "city": "",
      "lat": 55.670168,
      "lon": 24.346048,
      "source": "wpgmza"
    },
    {
      "network": "Emsi",
      "address": "54.809484, 23.853669",
      "city": "",
      "lat": 54.809484,
      "lon": 23.853669,
      "source": "wpgmza"
    },
    {
      "network": "Emsi",
      "address": "54.92783689898629, 23.97206399635007",
      "city": "",
      "lat": 54.927837,
      "lon": 23.972064,
      "source": "wpgmza"
    },
    {
      "network": "Emsi",
      "address": "54.932030649920115, 23.917912497803048",
      "city": "",
      "lat": 54.932031,
      "lon": 23.917912,
      "source": "wpgmza"
    },
    {
      "network": "Emsi",
      "address": "54.90833119993016, 23.993012561827246",
      "city": "",
      "lat": 54.908331,
      "lon": 23.993013,
      "source": "wpgmza"
    },
    {
      "network": "Emsi",
      "address": "Savanorių pr. 402, Kaunas, Kauno m. sav., Lietuva",
      "city": "",
      "lat": 54.927194,
      "lon": 23.970498,
      "source": "wpgmza"
    },
    {
      "network": "Emsi",
      "address": "Jonavos g. 292b, Kaunas, Kauno m. sav., Lietuva",
      "city": "",
      "lat": 54.931664,
      "lon": 23.918043,
      "source": "wpgmza"
    },
    {
      "network": "Emsi",
      "address": "Draugystės g. 8B, Kaunas, Kauno m. sav., Lietuva",
      "city": "",
      "lat": 54.908019,
      "lon": 23.992065,
      "source": "wpgmza"
    },
    {
      "network": "Emsi",
      "address": "Palemono gatvė 3A, Kaunas, Kauno m. sav., Lietuva",
      "city": "",
      "lat": 54.900985,
      "lon": 24.031209,
      "source": "wpgmza"
    },
    {
      "network": "Emsi",
      "address": "Liuksemburgo aklg. 27, Kaunas, Kauno m. sav., Lietuva",
      "city": "",
      "lat": 54.859234,
      "lon": 23.837084,
      "source": "wpgmza"
    },
    {
      "network": "Emsi",
      "address": "Marijampolės g. 58, Kaunas, Kauno r. sav., Lietuva",
      "city": "",
      "lat": 54.809532,
      "lon": 23.859559,
      "source": "wpgmza"
    },
    {
      "network": "Emsi",
      "address": "Taikos prospektas 124, Klaipėda, Klaipėdos m. sav., Lietuva",
      "city": "",
      "lat": 55.661169,
      "lon": 21.176253,
      "source": "wpgmza"
    },
    {
      "network": "Emsi",
      "address": "38242 Panevėžio r. sav., Lietuva",
      "city": "",
      "lat": 55.649218,
      "lon": 24.355982,
      "source": "wpgmza"
    },
    {
      "network": "Emsi",
      "address": "69338 Marijampolės sav., Lietuva",
      "city": "",
      "lat": 54.562177,
      "lon": 23.274006,
      "source": "wpgmza"
    },
    {
      "network": "Emsi",
      "address": "68100 Marijampolės sav., Lietuva",
      "city": "",
      "lat": 54.584706,
      "lon": 23.376985,
      "source": "wpgmza"
    },
    {
      "network": "Emsi",
      "address": "56.06385477273184, 24.426394032812485",
      "city": "",
      "lat": 56.063855,
      "lon": 24.426394,
      "source": "wpgmza"
    },
    {
      "network": "Emsi",
      "address": "Sembos g. 5, Šiauliai, Šiaulių m. sav., Lietuva",
      "city": "",
      "lat": 55.896673,
      "lon": 23.274129,
      "source": "wpgmza"
    },
    {
      "network": "Emsi",
      "address": "Nemuno g. 63a, Kiduliai",
      "city": "",
      "lat": 55.064429,
      "lon": 22.780661,
      "source": "wpgmza"
    },
    {
      "network": "Emsi",
      "address": "EMSI, Sereikoniai, Pasvalio rajono savivaldybė, Lietuva",
      "city": "",
      "lat": 55.908581,
      "lon": 24.354983,
      "source": "wpgmza"
    },
    {
      "network": "Emsi",
      "address": "54.87314621866112, 25.073408319604475",
      "city": "",
      "lat": 54.873146,
      "lon": 25.073408,
      "source": "wpgmza"
    },
    {
      "network": "Emsi",
      "address": "54.95173426912465, 23.893606107795726",
      "city": "",
      "lat": 54.951734,
      "lon": 23.893606,
      "source": "wpgmza"
    },
    {
      "network": "Emsi",
      "address": "T. Masiulio g. 16A, Kaunas, 52375 Kauno m. sav.",
      "city": "",
      "lat": 54.884588,
      "lon": 24.006121,
      "source": "wpgmza"
    },
    {
      "network": "Emsi",
      "address": "Kirtimų g. 33, Vilnius, 02300 Vilniaus m. sav.",
      "city": "",
      "lat": 54.627394,
      "lon": 25.149295,
      "source": "wpgmza"
    },
    {
      "network": "Emsi",
      "address": "55.277921205084525, 23.341360153279588",
      "city": "",
      "lat": 55.277921,
      "lon": 23.34136,
      "source": "wpgmza"
    },
    {
      "network": "Emsi",
      "address": "54.97189745233967, 23.858992989585428",
      "city": "",
      "lat": 54.971897,
      "lon": 23.858993,
      "source": "wpgmza"
    },
    {
      "network": "Neste",
      "address": "Talino g. 2C",
      "city": "Vilnius",
      "lat": 54.7139,
      "lon": 25.20905,
      "source": "neste-locator"
    },
    {
      "network": "Neste",
      "address": "Erfurto g. 41",
      "city": "Vilnius",
      "lat": 54.67261,
      "lon": 25.19828,
      "source": "neste-locator"
    },
    {
      "network": "Neste",
      "address": "Plieno g. 1",
      "city": "Klaipėda",
      "lat": 55.67298,
      "lon": 21.201,
      "source": "neste-locator"
    },
    {
      "network": "Neste",
      "address": "Žirmūnų g. 68B",
      "city": "Vilnius",
      "lat": 54.71753,
      "lon": 25.30448,
      "source": "neste-locator"
    },
    {
      "network": "Neste",
      "address": "Šilutės pl. 30",
      "city": "Klaipėda",
      "lat": 55.69314,
      "lon": 21.17496,
      "source": "neste-locator"
    },
    {
      "network": "Neste",
      "address": "Rygos g. 2",
      "city": "Vilnius",
      "lat": 54.71557,
      "lon": 25.22888,
      "source": "neste-locator"
    },
    {
      "network": "Neste",
      "address": "Pramonės pr. 6A",
      "city": "Kaunas",
      "lat": 54.90991,
      "lon": 23.98374,
      "source": "neste-locator"
    },
    {
      "network": "Neste",
      "address": "Klaipėdos g. 81",
      "city": "Panevėžys",
      "lat": 55.72831,
      "lon": 24.33242,
      "source": "neste-locator"
    },
    {
      "network": "Neste",
      "address": "Jonavos g. 110",
      "city": "Kaunas",
      "lat": 54.91333,
      "lon": 23.91162,
      "source": "neste-locator"
    },
    {
      "network": "Neste",
      "address": "Savanorių pr. 220A",
      "city": "Vilnius",
      "lat": 54.64421,
      "lon": 25.20697,
      "source": "neste-locator"
    },
    {
      "network": "Neste",
      "address": "Parodų g. 1A",
      "city": "Vilnius",
      "lat": 54.67344,
      "lon": 25.22406,
      "source": "neste-locator"
    },
    {
      "network": "Neste",
      "address": "Gegužių g. 28",
      "city": "Šiauliai",
      "lat": 55.90607,
      "lon": 23.25953,
      "source": "neste-locator"
    },
    {
      "network": "Neste",
      "address": "Veiverių g. 132D",
      "city": "Kaunas",
      "lat": 54.87575,
      "lon": 23.89093,
      "source": "neste-locator"
    },
    {
      "network": "Neste",
      "address": "Klaipėdos g. 66",
      "city": "Panevėžys",
      "lat": 55.72768,
      "lon": 24.34879,
      "source": "neste-locator"
    },
    {
      "network": "Neste",
      "address": "Tilžės g. 72",
      "city": "Šiauliai",
      "lat": 55.92028,
      "lon": 23.29298,
      "source": "neste-locator"
    },
    {
      "network": "Neste",
      "address": "Žemaičių pl. 26",
      "city": "Kaunas",
      "lat": 54.92557,
      "lon": 23.89179,
      "source": "neste-locator"
    },
    {
      "network": "Neste",
      "address": "Kauno g. 26",
      "city": "Vilnius",
      "lat": 54.67164,
      "lon": 25.27008,
      "source": "neste-locator"
    },
    {
      "network": "Neste",
      "address": "Artojo g. 2",
      "city": "Klaipėda",
      "lat": 55.71766,
      "lon": 21.15177,
      "source": "neste-locator"
    },
    {
      "network": "Neste",
      "address": "M. Daukšos g. 29",
      "city": "Mažeikiai",
      "lat": 56.3012,
      "lon": 22.34985,
      "source": "neste-locator"
    },
    {
      "network": "Neste",
      "address": "Geležinio Vilko g. 63",
      "city": "Vilnius",
      "lat": 54.71195,
      "lon": 25.27067,
      "source": "neste-locator"
    },
    {
      "network": "Neste",
      "address": "R. Kalantos g. 27",
      "city": "Kaunas",
      "lat": 54.89506,
      "lon": 23.98586,
      "source": "neste-locator"
    },
    {
      "network": "Neste",
      "address": "J. Basanavičiaus g. 91E",
      "city": "Kedainiai",
      "lat": 55.27815,
      "lon": 23.95989,
      "source": "neste-locator"
    },
    {
      "network": "Neste",
      "address": "S. Stanevičiaus g. 3",
      "city": "Vilnius",
      "lat": 54.72145,
      "lon": 25.25608,
      "source": "neste-locator"
    },
    {
      "network": "Neste",
      "address": "Santaikos g. 34A",
      "city": "Alytus",
      "lat": 54.38706,
      "lon": 24.02632,
      "source": "neste-locator"
    },
    {
      "network": "Neste",
      "address": "Kedrų g. 2",
      "city": "Vilnius",
      "lat": 54.67723,
      "lon": 25.25566,
      "source": "neste-locator"
    },
    {
      "network": "Neste",
      "address": "Molėtų pl. 8",
      "city": "Vilnius",
      "lat": 54.75489,
      "lon": 25.27126,
      "source": "neste-locator"
    },
    {
      "network": "Neste",
      "address": "Ateities pl. 50B",
      "city": "Kaunas",
      "lat": 54.92626,
      "lon": 24.06031,
      "source": "neste-locator"
    },
    {
      "network": "Neste",
      "address": "P. Lukšio g. 22",
      "city": "Vilnius",
      "lat": 54.71196,
      "lon": 25.29313,
      "source": "neste-locator"
    },
    {
      "network": "Neste",
      "address": "J. Basanavičiaus g. 129",
      "city": "Utena",
      "lat": 55.50511,
      "lon": 25.62464,
      "source": "neste-locator"
    },
    {
      "network": "Neste",
      "address": "Europos g. 1, Salaperaugio k., Liubavo sen., Kalvarijos sav.",
      "city": "Kalvarijos sav.",
      "lat": 54.32984,
      "lon": 23.15031,
      "source": "neste-locator"
    },
    {
      "network": "Neste",
      "address": "Ažuolpamušio g. 1A, Raubonių k., Pasvalio r.",
      "city": "Raubonys",
      "lat": 56.1152,
      "lon": 24.47067,
      "source": "neste-locator"
    },
    {
      "network": "Neste",
      "address": "Katyčių k.",
      "city": "Šilalės r. sav.",
      "lat": 55.5212,
      "lon": 22.36586,
      "source": "neste-locator"
    },
    {
      "network": "Neste",
      "address": "Geležinio Vilko g. 37A",
      "city": "Vilnius",
      "lat": 54.70161,
      "lon": 25.26372,
      "source": "neste-locator"
    },
    {
      "network": "Neste",
      "address": "Architektų g. 130",
      "city": "Vilnius",
      "lat": 54.68087,
      "lon": 25.20763,
      "source": "neste-locator"
    },
    {
      "network": "Neste",
      "address": "Taikos pr. 80A",
      "city": "Kaunas",
      "lat": 54.91209,
      "lon": 23.97267,
      "source": "neste-locator"
    },
    {
      "network": "Neste",
      "address": "Islandijos pl. 191E",
      "city": "Kaunas",
      "lat": 54.93142,
      "lon": 23.95076,
      "source": "neste-locator"
    },
    {
      "network": "Neste",
      "address": "Klaipėdos g. 144B",
      "city": "Panevėžys",
      "lat": 55.73065,
      "lon": 24.31611,
      "source": "neste-locator"
    },
    {
      "network": "Neste",
      "address": "Smiltelės g. 17",
      "city": "Klaipėda",
      "lat": 55.67012,
      "lon": 21.19296,
      "source": "neste-locator"
    },
    {
      "network": "Neste",
      "address": "Margirio g. 1B",
      "city": "Panevėžys",
      "lat": 55.71938,
      "lon": 24.34887,
      "source": "neste-locator"
    },
    {
      "network": "Neste",
      "address": "Raudondvario pl. 103",
      "city": "Kaunas",
      "lat": 54.90683,
      "lon": 23.87285,
      "source": "neste-locator"
    },
    {
      "network": "Neste",
      "address": "Justiniškių g. 14B",
      "city": "Vilnius",
      "lat": 54.70508,
      "lon": 25.21497,
      "source": "neste-locator"
    },
    {
      "network": "Neste",
      "address": "Subačiaus g. 64",
      "city": "Vilnius",
      "lat": 54.67687,
      "lon": 25.30948,
      "source": "neste-locator"
    },
    {
      "network": "Neste",
      "address": "Žirmūnų g. 54C",
      "city": "Vilnius",
      "lat": 54.70675,
      "lon": 25.30412,
      "source": "neste-locator"
    },
    {
      "network": "Neste",
      "address": "Birželio 23-osios g. 23A",
      "city": "Kaunas",
      "lat": 54.91626,
      "lon": 23.95401,
      "source": "neste-locator"
    },
    {
      "network": "Neste",
      "address": "Dubijos g. 18A",
      "city": "Šiauliai",
      "lat": 55.92926,
      "lon": 23.29436,
      "source": "neste-locator"
    },
    {
      "network": "Neste",
      "address": "Europos g. 6, Naujosios Valios k., Sangrūdos sen., Kalvarijos sav.",
      "city": "Kalvarijos sav.",
      "lat": 54.32832,
      "lon": 23.15056,
      "source": "neste-locator"
    },
    {
      "network": "Neste",
      "address": "Dariaus ir Girėno g. 17",
      "city": "Vilnius",
      "lat": 54.65507,
      "lon": 25.27073,
      "source": "neste-locator"
    },
    {
      "network": "Neste",
      "address": "Šilutės pl. 5C",
      "city": "Klaipėda",
      "lat": 55.70311,
      "lon": 21.16478,
      "source": "neste-locator"
    },
    {
      "network": "Neste",
      "address": "Vilniaus pl. 9, Jakų k., Klaipėdos r. sav.",
      "city": "Klaipėda",
      "lat": 55.70659,
      "lon": 21.23853,
      "source": "neste-locator"
    },
    {
      "network": "Neste",
      "address": "Panevėžio aplinkl. 7, Šilagalio k., Panevėžio r. sav.",
      "city": "Panevėžys",
      "lat": 55.67037,
      "lon": 24.34845,
      "source": "neste-locator"
    },
    {
      "network": "Neste",
      "address": "Vijoklių g. 1C, Ramučių k., Kauno r. sav.",
      "city": "Kaunas",
      "lat": 54.94831,
      "lon": 24.0178,
      "source": "neste-locator"
    },
    {
      "network": "Neste",
      "address": "Pilaitės pr. 27",
      "city": "Vilnius",
      "lat": 54.70877,
      "lon": 25.18972,
      "source": "neste-locator"
    },
    {
      "network": "Neste",
      "address": "Sendvario g. 2, Sudmantų k., Sendvario sen.",
      "city": "Klaipėda",
      "lat": 55.70602,
      "lon": 21.20259,
      "source": "neste-locator"
    },
    {
      "network": "Neste",
      "address": "Vakarų g. 14, Kumpių k., Kauno r. sav.",
      "city": "Kumpiu k., Kauno r.",
      "lat": 54.94984,
      "lon": 23.87374,
      "source": "neste-locator"
    },
    {
      "network": "Neste",
      "address": "Minijos g. 180",
      "city": "Klaipėda",
      "lat": 55.65052,
      "lon": 21.16461,
      "source": "neste-locator"
    },
    {
      "network": "Neste",
      "address": "Aplinkkelio g. 165, Kanapelkos k.",
      "city": "Kanapelka",
      "lat": 55.22168,
      "lon": 25.43672,
      "source": "neste-locator"
    },
    {
      "network": "Neste",
      "address": "Savanorių pr. 441C",
      "city": "Kaunas",
      "lat": 54.92934,
      "lon": 23.97347,
      "source": "neste-locator"
    },
    {
      "network": "Neste",
      "address": "Vakarinis aplinkkelis 18",
      "city": "Kaunas",
      "lat": 54.9338,
      "lon": 23.86774,
      "source": "neste-locator"
    },
    {
      "network": "Neste",
      "address": "Eišiškių pl. 82",
      "city": "Vilnius",
      "lat": 54.62137,
      "lon": 25.24287,
      "source": "neste-locator"
    },
    {
      "network": "Neste",
      "address": "Ukmergės g. 296",
      "city": "Vilnius",
      "lat": 54.73613,
      "lon": 25.23115,
      "source": "neste-locator"
    },
    {
      "network": "Neste",
      "address": "Pušyno g. 11, Ylių k.",
      "city": "Yliai",
      "lat": 55.41173,
      "lon": 22.83072,
      "source": "neste-locator"
    },
    {
      "network": "Neste",
      "address": "Vilniaus g. 94",
      "city": "Pabradė",
      "lat": 54.97889,
      "lon": 25.75661,
      "source": "neste-locator"
    },
    {
      "network": "Neste",
      "address": "Panerių g. 42",
      "city": "Vilnius",
      "lat": 54.66822,
      "lon": 25.26512,
      "source": "neste-locator"
    },
    {
      "network": "Neste",
      "address": "Europos pr. 43",
      "city": "Kaunas",
      "lat": 54.87534,
      "lon": 23.91146,
      "source": "neste-locator"
    },
    {
      "network": "Neste",
      "address": "Plento g. 7, Gudžionių k., Šilų sen., Jonavos r. sav.",
      "city": "Jonavos",
      "lat": 55.09568,
      "lon": 24.31259,
      "source": "neste-locator"
    },
    {
      "network": "Neste",
      "address": "Versmės g. 2",
      "city": "Radviliškis",
      "lat": 55.81384,
      "lon": 23.54581,
      "source": "neste-locator"
    },
    {
      "network": "Neste",
      "address": "Dariaus ir Girėno g. 130A",
      "city": "Tauragė",
      "lat": 55.2653,
      "lon": 22.30891,
      "source": "neste-locator"
    },
    {
      "network": "Neste",
      "address": "Sabališkių 1U",
      "city": "Elektrėnai",
      "lat": 54.78952,
      "lon": 24.67274,
      "source": "neste-locator"
    },
    {
      "network": "Neste",
      "address": "Geležinio Vilko g. 41",
      "city": "Vilnius",
      "lat": 54.70413,
      "lon": 25.2669,
      "source": "neste-locator"
    },
    {
      "network": "Neste",
      "address": "Vilkaviškio g. 61D",
      "city": "Marijampolė",
      "lat": 54.56239,
      "lon": 23.33233,
      "source": "neste-locator"
    },
    {
      "network": "Neste",
      "address": "Kupiškio g. 12",
      "city": "Atkociškės",
      "lat": 55.48189,
      "lon": 25.57905,
      "source": "neste-locator"
    },
    {
      "network": "Neste",
      "address": "Ramygalos g. 145B",
      "city": "Panevėžys",
      "lat": 55.70945,
      "lon": 24.37481,
      "source": "neste-locator"
    },
    {
      "network": "Neste",
      "address": "Taikos pr. 60",
      "city": "Klaipėda",
      "lat": 55.68886,
      "lon": 21.1552,
      "source": "neste-locator"
    },
    {
      "network": "Neste",
      "address": "Minijos g. 119",
      "city": "Klaipėda",
      "lat": 55.68441,
      "lon": 21.14966,
      "source": "neste-locator"
    },
    {
      "network": "Neste",
      "address": "Savanorių pr. 187",
      "city": "Vilnius",
      "lat": 54.64811,
      "lon": 25.21247,
      "source": "neste-locator"
    },
    {
      "network": "Neste",
      "address": "Stoties g. 4C",
      "city": "Marijampolė",
      "lat": 54.56039,
      "lon": 23.36587,
      "source": "neste-locator"
    },
    {
      "network": "Neste",
      "address": "Kuršių g. 1",
      "city": "Kaunas",
      "lat": 54.93617,
      "lon": 23.88529,
      "source": "neste-locator"
    },
    {
      "network": "Neste",
      "address": "Tunelio g. 26",
      "city": "Kaunas",
      "lat": 54.89484,
      "lon": 23.94421,
      "source": "neste-locator"
    },
    {
      "network": "Neste",
      "address": "J. Tiškevičiaus g. 19",
      "city": "Vilnius",
      "lat": 54.62428,
      "lon": 25.11174,
      "source": "neste-locator"
    },
    {
      "network": "Neste",
      "address": "Žirnių g. 17",
      "city": "Vilnius",
      "lat": 54.65665,
      "lon": 25.29206,
      "source": "neste-locator"
    },
    {
      "network": "Neste",
      "address": "Ūdrijos g. 31",
      "city": "Alytus",
      "lat": 54.40893,
      "lon": 24.0052,
      "source": "neste-locator"
    },
    {
      "network": "Neste",
      "address": "Gariūnų g. 55",
      "city": "Vilnius",
      "lat": 54.65823,
      "lon": 25.15884,
      "source": "neste-locator"
    },
    {
      "network": "Neste",
      "address": "Šiaulių pl. 1A, Gaudikaičių k.",
      "city": "Telšiai",
      "lat": 56.00488,
      "lon": 22.24028,
      "source": "neste-locator"
    },
    {
      "network": "Neste",
      "address": "Servečės g. 2",
      "city": "Vilnius",
      "lat": 54.63387,
      "lon": 25.3045,
      "source": "neste-locator"
    },
    {
      "network": "Neste",
      "address": "Panevėžio aplinkel. 22, Šilagalio km., Panevėžio raj. sav.,",
      "city": "Panevėžys",
      "lat": 55.67314,
      "lon": 24.33452,
      "source": "neste-locator"
    },
    {
      "network": "Neste",
      "address": "Kauno g. 45B",
      "city": "Ukmergė",
      "lat": 55.24206,
      "lon": 24.74291,
      "source": "neste-locator"
    },
    {
      "network": "Circle K",
      "address": "",
      "city": "",
      "lat": 54.670918,
      "lon": 25.236569,
      "source": "circlek-web"
    },
    {
      "network": "Circle K",
      "address": "",
      "city": "",
      "lat": 54.73594,
      "lon": 25.265611,
      "source": "circlek-web"
    },
    {
      "network": "Circle K",
      "address": "",
      "city": "",
      "lat": 54.695298,
      "lon": 25.218638,
      "source": "circlek-web"
    },
    {
      "network": "Circle K",
      "address": "",
      "city": "",
      "lat": 54.695012,
      "lon": 25.298001,
      "source": "circlek-web"
    },
    {
      "network": "Circle K",
      "address": "",
      "city": "",
      "lat": 54.72019,
      "lon": 25.246241,
      "source": "circlek-web"
    },
    {
      "network": "Circle K",
      "address": "",
      "city": "",
      "lat": 54.718708,
      "lon": 25.300565,
      "source": "circlek-web"
    },
    {
      "network": "Circle K",
      "address": "",
      "city": "",
      "lat": 54.694412,
      "lon": 25.263362,
      "source": "circlek-web"
    },
    {
      "network": "Circle K",
      "address": "",
      "city": "",
      "lat": 54.709145,
      "lon": 25.228123,
      "source": "circlek-web"
    },
    {
      "network": "Circle K",
      "address": "",
      "city": "",
      "lat": 54.623158,
      "lon": 25.11018,
      "source": "circlek-web"
    },
    {
      "network": "Circle K",
      "address": "",
      "city": "",
      "lat": 54.651554,
      "lon": 25.269413,
      "source": "circlek-web"
    },
    {
      "network": "Circle K",
      "address": "",
      "city": "",
      "lat": 54.916233,
      "lon": 23.986631,
      "source": "circlek-web"
    },
    {
      "network": "Circle K",
      "address": "",
      "city": "",
      "lat": 54.818556,
      "lon": 23.858111,
      "source": "circlek-web"
    },
    {
      "network": "Circle K",
      "address": "",
      "city": "",
      "lat": 54.908277,
      "lon": 23.864957,
      "source": "circlek-web"
    },
    {
      "network": "Circle K",
      "address": "",
      "city": "",
      "lat": 54.760518,
      "lon": 25.201747,
      "source": "circlek-web"
    },
    {
      "network": "Circle K",
      "address": "",
      "city": "",
      "lat": 54.894038,
      "lon": 24.006868,
      "source": "circlek-web"
    },
    {
      "network": "Circle K",
      "address": "",
      "city": "",
      "lat": 54.42474,
      "lon": 24.003441,
      "source": "circlek-web"
    },
    {
      "network": "Circle K",
      "address": "",
      "city": "",
      "lat": 54.920105,
      "lon": 23.952899,
      "source": "circlek-web"
    },
    {
      "network": "Circle K",
      "address": "",
      "city": "",
      "lat": 54.880829,
      "lon": 23.89393,
      "source": "circlek-web"
    },
    {
      "network": "Circle K",
      "address": "",
      "city": "",
      "lat": 55.9289,
      "lon": 23.297667,
      "source": "circlek-web"
    },
    {
      "network": "Circle K",
      "address": "",
      "city": "",
      "lat": 54.713292,
      "lon": 25.209223,
      "source": "circlek-web"
    },
    {
      "network": "Circle K",
      "address": "",
      "city": "",
      "lat": 55.909327,
      "lon": 23.319346,
      "source": "circlek-web"
    },
    {
      "network": "Circle K",
      "address": "",
      "city": "",
      "lat": 54.78921,
      "lon": 24.676086,
      "source": "circlek-web"
    },
    {
      "network": "Circle K",
      "address": "",
      "city": "",
      "lat": 55.50521,
      "lon": 25.62127,
      "source": "circlek-web"
    },
    {
      "network": "Circle K",
      "address": "",
      "city": "",
      "lat": 55.810469,
      "lon": 24.368724,
      "source": "circlek-web"
    },
    {
      "network": "Circle K",
      "address": "",
      "city": "",
      "lat": 55.914821,
      "lon": 21.077936,
      "source": "circlek-web"
    },
    {
      "network": "Circle K",
      "address": "",
      "city": "",
      "lat": 55.999324,
      "lon": 22.989745,
      "source": "circlek-web"
    },
    {
      "network": "Circle K",
      "address": "",
      "city": "",
      "lat": 55.687653,
      "lon": 21.145064,
      "source": "circlek-web"
    },
    {
      "network": "Circle K",
      "address": "",
      "city": "",
      "lat": 55.69244,
      "lon": 21.153767,
      "source": "circlek-web"
    },
    {
      "network": "Circle K",
      "address": "",
      "city": "",
      "lat": 55.730408,
      "lon": 21.124619,
      "source": "circlek-web"
    },
    {
      "network": "Circle K",
      "address": "",
      "city": "",
      "lat": 54.576249,
      "lon": 23.371213,
      "source": "circlek-web"
    },
    {
      "network": "Circle K",
      "address": "",
      "city": "",
      "lat": 54.395068,
      "lon": 24.037857,
      "source": "circlek-web"
    },
    {
      "network": "Circle K",
      "address": "",
      "city": "",
      "lat": 54.010273,
      "lon": 23.993451,
      "source": "circlek-web"
    },
    {
      "network": "Circle K",
      "address": "",
      "city": "",
      "lat": 55.71768,
      "lon": 24.371095,
      "source": "circlek-web"
    },
    {
      "network": "Circle K",
      "address": "",
      "city": "",
      "lat": 55.731853,
      "lon": 24.342399,
      "source": "circlek-web"
    },
    {
      "network": "Circle K",
      "address": "",
      "city": "",
      "lat": 54.557125,
      "lon": 23.354007,
      "source": "circlek-web"
    },
    {
      "network": "Circle K",
      "address": "",
      "city": "",
      "lat": 55.286587,
      "lon": 23.972302,
      "source": "circlek-web"
    },
    {
      "network": "Circle K",
      "address": "",
      "city": "",
      "lat": 55.312144,
      "lon": 24.786476,
      "source": "circlek-web"
    },
    {
      "network": "Circle K",
      "address": "",
      "city": "",
      "lat": 55.977144,
      "lon": 22.265375,
      "source": "circlek-web"
    },
    {
      "network": "Circle K",
      "address": "",
      "city": "",
      "lat": 55.350235,
      "lon": 21.47432,
      "source": "circlek-web"
    },
    {
      "network": "Circle K",
      "address": "",
      "city": "",
      "lat": 54.210789,
      "lon": 24.577762,
      "source": "circlek-web"
    },
    {
      "network": "Circle K",
      "address": "",
      "city": "",
      "lat": 56.302373,
      "lon": 22.345047,
      "source": "circlek-web"
    },
    {
      "network": "Circle K",
      "address": "",
      "city": "",
      "lat": 56.258582,
      "lon": 23.621817,
      "source": "circlek-web"
    },
    {
      "network": "Circle K",
      "address": "",
      "city": "",
      "lat": 55.95232,
      "lon": 25.589617,
      "source": "circlek-web"
    },
    {
      "network": "Circle K",
      "address": "",
      "city": "",
      "lat": 55.07057,
      "lon": 24.263506,
      "source": "circlek-web"
    },
    {
      "network": "Circle K",
      "address": "",
      "city": "",
      "lat": 54.702357,
      "lon": 25.264761,
      "source": "circlek-web"
    },
    {
      "network": "Circle K",
      "address": "",
      "city": "",
      "lat": 55.863594,
      "lon": 21.217201,
      "source": "circlek-web"
    },
    {
      "network": "Circle K",
      "address": "",
      "city": "",
      "lat": 54.658659,
      "lon": 25.266347,
      "source": "circlek-web"
    },
    {
      "network": "Circle K",
      "address": "",
      "city": "",
      "lat": 55.811565,
      "lon": 23.550058,
      "source": "circlek-web"
    },
    {
      "network": "Circle K",
      "address": "",
      "city": "",
      "lat": 55.24827,
      "lon": 22.302877,
      "source": "circlek-web"
    },
    {
      "network": "Circle K",
      "address": "",
      "city": "",
      "lat": 55.67337,
      "lon": 24.33583,
      "source": "circlek-web"
    },
    {
      "network": "Circle K",
      "address": "",
      "city": "",
      "lat": 54.93565,
      "lon": 23.870417,
      "source": "circlek-web"
    },
    {
      "network": "Circle K",
      "address": "",
      "city": "",
      "lat": 54.92526,
      "lon": 23.890491,
      "source": "circlek-web"
    },
    {
      "network": "Circle K",
      "address": "",
      "city": "",
      "lat": 55.48419,
      "lon": 22.587226,
      "source": "circlek-web"
    },
    {
      "network": "Circle K",
      "address": "",
      "city": "",
      "lat": 55.7114,
      "lon": 21.26305,
      "source": "circlek-web"
    },
    {
      "network": "Circle K",
      "address": "",
      "city": "",
      "lat": 54.75156,
      "lon": 25.26653,
      "source": "circlek-web"
    },
    {
      "network": "Circle K",
      "address": "",
      "city": "",
      "lat": 54.912106,
      "lon": 23.956737,
      "source": "circlek-web"
    },
    {
      "network": "Circle K",
      "address": "",
      "city": "",
      "lat": 56.194803,
      "lon": 24.771856,
      "source": "circlek-web"
    },
    {
      "network": "Circle K",
      "address": "",
      "city": "",
      "lat": 54.93601,
      "lon": 23.96597,
      "source": "circlek-web"
    },
    {
      "network": "Circle K",
      "address": "",
      "city": "",
      "lat": 54.93307,
      "lon": 23.96542,
      "source": "circlek-web"
    },
    {
      "network": "Circle K",
      "address": "",
      "city": "",
      "lat": 54.894043,
      "lon": 23.914109,
      "source": "circlek-web"
    },
    {
      "network": "Circle K",
      "address": "",
      "city": "",
      "lat": 54.686221,
      "lon": 25.053965,
      "source": "circlek-web"
    },
    {
      "network": "Circle K",
      "address": "",
      "city": "",
      "lat": 55.495936,
      "lon": 25.582789,
      "source": "circlek-web"
    },
    {
      "network": "Circle K",
      "address": "",
      "city": "",
      "lat": 54.226753,
      "lon": 23.524997,
      "source": "circlek-web"
    },
    {
      "network": "Circle K",
      "address": "",
      "city": "",
      "lat": 54.636443,
      "lon": 23.074778,
      "source": "circlek-web"
    },
    {
      "network": "Circle K",
      "address": "",
      "city": "",
      "lat": 55.666609,
      "lon": 21.172719,
      "source": "circlek-web"
    },
    {
      "network": "Circle K",
      "address": "",
      "city": "",
      "lat": 55.692944,
      "lon": 21.179734,
      "source": "circlek-web"
    },
    {
      "network": "Circle K",
      "address": "",
      "city": "",
      "lat": 55.4615,
      "lon": 22.693284,
      "source": "circlek-web"
    },
    {
      "network": "Circle K",
      "address": "",
      "city": "",
      "lat": 54.322289,
      "lon": 23.141419,
      "source": "circlek-web"
    },
    {
      "network": "Circle K",
      "address": "",
      "city": "",
      "lat": 54.368225,
      "lon": 23.183729,
      "source": "circlek-web"
    },
    {
      "network": "Circle K",
      "address": "",
      "city": "",
      "lat": 55.924786,
      "lon": 23.334113,
      "source": "circlek-web"
    },
    {
      "network": "Circle K",
      "address": "",
      "city": "",
      "lat": 54.893093,
      "lon": 23.995791,
      "source": "circlek-web"
    },
    {
      "network": "Circle K",
      "address": "",
      "city": "",
      "lat": 54.91451,
      "lon": 23.900006,
      "source": "circlek-web"
    },
    {
      "network": "Circle K",
      "address": "",
      "city": "",
      "lat": 54.670986,
      "lon": 25.192105,
      "source": "circlek-web"
    },
    {
      "network": "Circle K",
      "address": "",
      "city": "",
      "lat": 55.26716,
      "lon": 22.310066,
      "source": "circlek-web"
    },
    {
      "network": "Circle K",
      "address": "",
      "city": "",
      "lat": 54.938358,
      "lon": 23.898278,
      "source": "circlek-web"
    },
    {
      "network": "Circle K",
      "address": "",
      "city": "",
      "lat": 54.661742,
      "lon": 25.235338,
      "source": "circlek-web"
    },
    {
      "network": "Circle K",
      "address": "",
      "city": "",
      "lat": 54.73049,
      "lon": 25.239025,
      "source": "circlek-web"
    },
    {
      "network": "Circle K",
      "address": "",
      "city": "",
      "lat": 54.662854,
      "lon": 25.234954,
      "source": "circlek-web"
    },
    {
      "network": "Circle K",
      "address": "",
      "city": "",
      "lat": 54.71551,
      "lon": 25.290766,
      "source": "circlek-web"
    },
    {
      "network": "Circle K",
      "address": "",
      "city": "",
      "lat": 54.702899,
      "lon": 25.263932,
      "source": "circlek-web"
    },
    {
      "network": "Circle K",
      "address": "",
      "city": "",
      "lat": 54.658767,
      "lon": 25.16093,
      "source": "circlek-web"
    },
    {
      "network": "Circle K",
      "address": "",
      "city": "",
      "lat": 54.92831,
      "lon": 23.973625,
      "source": "circlek-web"
    },
    {
      "network": "Circle K",
      "address": "",
      "city": "",
      "lat": 54.91317,
      "lon": 23.926177,
      "source": "circlek-web"
    },
    {
      "network": "Circle K",
      "address": "",
      "city": "",
      "lat": 54.928513,
      "lon": 23.928984,
      "source": "circlek-web"
    },
    {
      "network": "Circle K",
      "address": "",
      "city": "",
      "lat": 54.899055,
      "lon": 23.959933,
      "source": "circlek-web"
    },
    {
      "network": "Circle K",
      "address": "",
      "city": "",
      "lat": 54.901627,
      "lon": 23.894905,
      "source": "circlek-web"
    },
    {
      "network": "Circle K",
      "address": "",
      "city": "",
      "lat": 55.91276,
      "lon": 23.273898,
      "source": "circlek-web"
    },
    {
      "network": "Circle K",
      "address": "",
      "city": "",
      "lat": 55.704329,
      "lon": 21.160808,
      "source": "circlek-web"
    },
    {
      "network": "Circle K",
      "address": "",
      "city": "",
      "lat": 55.656796,
      "lon": 21.182391,
      "source": "circlek-web"
    },
    {
      "network": "Circle K",
      "address": "",
      "city": "",
      "lat": 55.702286,
      "lon": 21.138001,
      "source": "circlek-web"
    },
    {
      "network": "Circle K",
      "address": "",
      "city": "",
      "lat": 55.728796,
      "lon": 24.339034,
      "source": "circlek-web"
    },
    {
      "network": "Circle K",
      "address": "",
      "city": "",
      "lat": 55.938799,
      "lon": 21.879922,
      "source": "circlek-web"
    },
    {
      "network": "Circle K",
      "address": "",
      "city": "",
      "lat": 54.953047,
      "lon": 23.083773,
      "source": "circlek-web"
    },
    {
      "network": "Circle K",
      "address": "",
      "city": "",
      "lat": 55.824587,
      "lon": 25.001069,
      "source": "circlek-web"
    },
    {
      "network": "Circle K",
      "address": "",
      "city": "",
      "lat": 55.274248,
      "lon": 23.944962,
      "source": "circlek-web"
    },
    {
      "network": "Circle K",
      "address": "",
      "city": "",
      "lat": 55.734882,
      "lon": 21.923654,
      "source": "circlek-web"
    },
    {
      "network": "Circle K",
      "address": "",
      "city": "",
      "lat": 55.424342,
      "lon": 24.920568,
      "source": "circlek-web"
    },
    {
      "network": "Circle K",
      "address": "",
      "city": "",
      "lat": 55.0768,
      "lon": 22.75204,
      "source": "circlek-web"
    },
    {
      "network": "Circle K",
      "address": "",
      "city": "",
      "lat": 54.780709,
      "lon": 25.273898,
      "source": "circlek-web"
    }
  ]
}