{
  "generated": "2026-07-02T08:33:31Z",
  "count": 506,
  "networks": [
    "Baltic Petroleum",
    "Circle K",
    "Emsi",
    "Neste",
    "Viada"
  ],
  "stations": [
    {
      "network": "Baltic Petroleum",
      "address": "Marijampolė, P.Armino g. 69",
      "city": "Marijampolė",
      "lat": 54.533904,
      "lon": 23.353163,
      "source": "fscc-api"
    },
    {
      "network": "Baltic Petroleum",
      "address": "Respublikos g. 113 B, Rokiškis,  Lietuva",
      "city": "Rokiškis",
      "lat": 55.946755,
      "lon": 25.590818,
      "source": "fscc-api"
    },
    {
      "network": "Baltic Petroleum",
      "address": "Druskininkai, Leipalingio g. 26",
      "city": "Druskininkai",
      "lat": 54.030364,
      "lon": 23.983674,
      "source": "fscc-api"
    },
    {
      "network": "Baltic Petroleum",
      "address": "Vilnius, Metalo g. 4B",
      "city": "Vilnius",
      "lat": 54.640438,
      "lon": 25.267512,
      "source": "fscc-api"
    },
    {
      "network": "Baltic Petroleum",
      "address": "Kauno r. Vilkijos sen., Jaučiakių k.",
      "city": "Jaučiakių k.",
      "lat": 55.038374,
      "lon": 23.607911,
      "source": "fscc-api"
    },
    {
      "network": "Baltic Petroleum",
      "address": "Nida, Nidos - Smiltynės pl. 6",
      "city": "Nida",
      "lat": 55.300905,
      "lon": 20.979956,
      "source": "fscc-api"
    },
    {
      "network": "Baltic Petroleum",
      "address": "Kaunas, Jonavos g. 60A",
      "city": "Kaunas",
      "lat": 54.905045,
      "lon": 23.89955,
      "source": "fscc-api"
    },
    {
      "network": "Baltic Petroleum",
      "address": "Druskininkai, Gardino g. 79",
      "city": "Druskininkai",
      "lat": 53.99993,
      "lon": 23.988055,
      "source": "fscc-api"
    },
    {
      "network": "Baltic Petroleum",
      "address": "Prienų r. sav., Veiverių k.",
      "city": "Veiverių k.",
      "lat": 54.760985,
      "lon": 23.713228,
      "source": "fscc-api"
    },
    {
      "network": "Baltic Petroleum",
      "address": "Jonava, Žemaitės g. 1",
      "city": "Jonava",
      "lat": 55.082541,
      "lon": 24.270744,
      "source": "fscc-api"
    },
    {
      "network": "Baltic Petroleum",
      "address": "Klaipėdos r., Sav., Gargždai, Dariaus ir Girėno g.",
      "city": "Gargždai",
      "lat": 55.7076,
      "lon": 21.38056,
      "source": "fscc-api"
    },
    {
      "network": "Baltic Petroleum",
      "address": "Skuodas, Vytauto g. 22",
      "city": "Skuodas",
      "lat": 56.259168,
      "lon": 21.530562,
      "source": "fscc-api"
    },
    {
      "network": "Baltic Petroleum",
      "address": "Kaunas, H. ir O. Minkovskiu g. 132",
      "city": "Kaunas",
      "lat": 54.885791,
      "lon": 23.912009,
      "source": "fscc-api"
    },
    {
      "network": "Baltic Petroleum",
      "address": "Kelmė, V. Putvinskio g. 29",
      "city": "Kelmė",
      "lat": 55.641154,
      "lon": 22.92719,
      "source": "fscc-api"
    },
    {
      "network": "Baltic Petroleum",
      "address": "Alytaus r., Likiškėlių k., Senojo Plento g. 1G",
      "city": "Likiškėlių k.",
      "lat": 54.387895,
      "lon": 23.996028,
      "source": "fscc-api"
    },
    {
      "network": "Baltic Petroleum",
      "address": "Telšių r. sav., Varnių sen., Ožtakių k., Dariaus ir Girėno g. 77",
      "city": "Ožtakių k.",
      "lat": 55.730402,
      "lon": 22.376796,
      "source": "fscc-api"
    },
    {
      "network": "Baltic Petroleum",
      "address": "Tauragės r. sav., Tauragės sen., Taurų k., Tilžės pl. 36",
      "city": "Taurų k.",
      "lat": 55.243335,
      "lon": 22.252982,
      "source": "fscc-api"
    },
    {
      "network": "Baltic Petroleum",
      "address": "Pasvalio r. sav., Aukštikalnių k., Mūšos g. 19",
      "city": "Aukštikalnių k.",
      "lat": 56.070646,
      "lon": 24.41062,
      "source": "fscc-api"
    },
    {
      "network": "Baltic Petroleum",
      "address": "Radviliškis, Šiauliu g. 1A",
      "city": "Radviliškis",
      "lat": 55.825541,
      "lon": 23.523356,
      "source": "fscc-api"
    },
    {
      "network": "Baltic Petroleum",
      "address": "Jonavos r., Spanėnų k., Plento g. 46",
      "city": "Spanėnų k.",
      "lat": 55.058167,
      "lon": 24.263538,
      "source": "fscc-api"
    },
    {
      "network": "Baltic Petroleum",
      "address": "Varėnos r. sav., Senoji Varėna, Vilniaus g. 6A",
      "city": "Senoji Varėna",
      "lat": 54.25656,
      "lon": 24.547038,
      "source": "fscc-api"
    },
    {
      "network": "Baltic Petroleum",
      "address": "Klaipeda, Šilutes pl. 1",
      "city": "Klaipeda",
      "lat": 55.704933,
      "lon": 21.163291,
      "source": "fscc-api"
    },
    {
      "network": "Baltic Petroleum",
      "address": "Joniškis, Vilniaus g. 72",
      "city": "Joniškis",
      "lat": 56.223278,
      "lon": 23.597525,
      "source": "fscc-api"
    },
    {
      "network": "Baltic Petroleum",
      "address": "Kalvarijos sav., Pasiekų k., Europos g. 12",
      "city": "Pasiekų k.",
      "lat": 54.322374,
      "lon": 23.145167,
      "source": "fscc-api"
    },
    {
      "network": "Baltic Petroleum",
      "address": "Marijampolė, Vasaros g. 15",
      "city": "Marijampolė",
      "lat": 54.555636,
      "lon": 23.375454,
      "source": "fscc-api"
    },
    {
      "network": "Baltic Petroleum",
      "address": "Vilnius, Visalaukio g. 2",
      "city": "Vilnius",
      "lat": 54.779287,
      "lon": 25.341874,
      "source": "fscc-api"
    },
    {
      "network": "Baltic Petroleum",
      "address": "Vilnius, Kalvarijų g. 161A",
      "city": "Vilnius",
      "lat": 54.723999,
      "lon": 25.282324,
      "source": "fscc-api"
    },
    {
      "network": "Baltic Petroleum",
      "address": "Šilalė, Rytinio kelio g. 2",
      "city": "Šilalė",
      "lat": 55.490035,
      "lon": 22.199784,
      "source": "fscc-api"
    },
    {
      "network": "Baltic Petroleum",
      "address": "Vilnius, Savanorių pr. 121",
      "city": "Vilnius",
      "lat": 54.660926,
      "lon": 25.233389,
      "source": "fscc-api"
    },
    {
      "network": "Baltic Petroleum",
      "address": "Rokiškio r. sav., Pandėlio k., Elektrinės g. 1",
      "city": "Pandėlio k.",
      "lat": 56.0192,
      "lon": 25.222228,
      "source": "fscc-api"
    },
    {
      "network": "Baltic Petroleum",
      "address": "Klaipėdos r. sav., Priekulė, Klaipėdos g. 61",
      "city": "Priekulė",
      "lat": 55.562062,
      "lon": 21.308618,
      "source": "fscc-api"
    },
    {
      "network": "Baltic Petroleum",
      "address": "Varėnos r. sav., Merkinė, Vilniaus g. 87",
      "city": "Merkinė",
      "lat": 54.169021,
      "lon": 24.207974,
      "source": "fscc-api"
    },
    {
      "network": "Baltic Petroleum",
      "address": "Ukmergė, Kauno g. 49",
      "city": "Ukmergė",
      "lat": 55.240854,
      "lon": 24.73959,
      "source": "fscc-api"
    },
    {
      "network": "Baltic Petroleum",
      "address": "Kauno r. Garliavos sen., Pagirių k., Marijampolės g. 1",
      "city": "Pagirių k.",
      "lat": 54.814628,
      "lon": 23.87254,
      "source": "fscc-api"
    },
    {
      "network": "Baltic Petroleum",
      "address": "Plungės r. sav., Plateliai, Žemaičių Kalvarijos g. 1A",
      "city": "Plateliai",
      "lat": 56.043869,
      "lon": 21.815653,
      "source": "fscc-api"
    },
    {
      "network": "Baltic Petroleum",
      "address": "Radviliškis, Miško g. 64",
      "city": "Radviliškis",
      "lat": 55.800801,
      "lon": 23.565702,
      "source": "fscc-api"
    },
    {
      "network": "Baltic Petroleum",
      "address": "Vienuolio g. 34A, Anykšciai,  Lietuva",
      "city": "Anykščiai",
      "lat": 55.522582,
      "lon": 25.08799,
      "source": "fscc-api"
    },
    {
      "network": "Baltic Petroleum",
      "address": "Palanga, Ganyklų g. 28C",
      "city": "Palanga",
      "lat": 55.923324,
      "lon": 21.075206,
      "source": "fscc-api"
    },
    {
      "network": "Baltic Petroleum",
      "address": "Trakai, Vilniaus g. 33",
      "city": "Trakai",
      "lat": 54.62727,
      "lon": 24.948711,
      "source": "fscc-api"
    },
    {
      "network": "Baltic Petroleum",
      "address": "Zarasų r. sav., Sarakiškių k., Vytauto g. 61",
      "city": "Sarakiškių k.",
      "lat": 55.737287,
      "lon": 26.272834,
      "source": "fscc-api"
    },
    {
      "network": "Baltic Petroleum",
      "address": "Vilnius, Rinktinės g. 59",
      "city": "Vilnius",
      "lat": 54.702833,
      "lon": 25.288126,
      "source": "fscc-api"
    },
    {
      "network": "Baltic Petroleum",
      "address": "Kaunas, Raudondvario pl. 82",
      "city": "Kaunas",
      "lat": 54.907738,
      "lon": 23.874252,
      "source": "fscc-api"
    },
    {
      "network": "Baltic Petroleum",
      "address": "Raseinių r., Sav., Girkalnio sen., Girkalnio k., Žemaičių g. 39",
      "city": "Girkalnio k.",
      "lat": 55.318307,
      "lon": 23.210769,
      "source": "fscc-api"
    },
    {
      "network": "Baltic Petroleum",
      "address": "Šalčininkai, Vilniaus g. 5A",
      "city": "Šalčininkai",
      "lat": 54.317842,
      "lon": 25.381712,
      "source": "fscc-api"
    },
    {
      "network": "Baltic Petroleum",
      "address": "Rietavas, Dariaus ir Girėno g. 19",
      "city": "Rietavas",
      "lat": 55.719508,
      "lon": 21.928083,
      "source": "fscc-api"
    },
    {
      "network": "Baltic Petroleum",
      "address": "Šakių r. sav., Griškabūdis, A. Skelčio g. 4",
      "city": "Griškabūdis",
      "lat": 54.852382,
      "lon": 23.176758,
      "source": "fscc-api"
    },
    {
      "network": "Baltic Petroleum",
      "address": "Vilnius, Gerosios Vilties g. 33",
      "city": "Vilnius",
      "lat": 54.666834,
      "lon": 25.251065,
      "source": "fscc-api"
    },
    {
      "network": "Baltic Petroleum",
      "address": "Šiauliai, Kupiškio g. 4",
      "city": "Šiauliai",
      "lat": 55.957544,
      "lon": 23.316059,
      "source": "fscc-api"
    },
    {
      "network": "Baltic Petroleum",
      "address": "Jurbarko r. sav., Klišių k., Pievų g. 2",
      "city": "Klišių k.",
      "lat": 55.098482,
      "lon": 22.772921,
      "source": "fscc-api"
    },
    {
      "network": "Baltic Petroleum",
      "address": "Molėtai, Vilniaus g. 104",
      "city": "Molėtai",
      "lat": 55.217337,
      "lon": 25.403375,
      "source": "fscc-api"
    },
    {
      "network": "Baltic Petroleum",
      "address": "Vilniaus r. sav., Šatrininkų sen., Grigaičiai, Pavilnės g. 1",
      "city": "Grigaičiai",
      "lat": 54.681567,
      "lon": 25.412533,
      "source": "fscc-api"
    },
    {
      "network": "Baltic Petroleum",
      "address": "Radviliškio r. sav., Užuovėjos k.",
      "city": "Užuovėjos k.",
      "lat": 55.763309,
      "lon": 23.74254,
      "source": "fscc-api"
    },
    {
      "network": "Baltic Petroleum",
      "address": "Širvintos, Musninkų g. 21",
      "city": "Širvintos",
      "lat": 55.032222,
      "lon": 24.967251,
      "source": "fscc-api"
    },
    {
      "network": "Baltic Petroleum",
      "address": "Šilutė, Klaipėdos g. 4A",
      "city": "Šilutė",
      "lat": 55.352837,
      "lon": 21.462853,
      "source": "fscc-api"
    },
    {
      "network": "Baltic Petroleum",
      "address": "Vilniaus r. sav., Avižienių sen., Užubalių k., Senasis Ukmergės kelias 4",
      "city": "Užubalių k.",
      "lat": 54.768547,
      "lon": 25.195795,
      "source": "fscc-api"
    },
    {
      "network": "Baltic Petroleum",
      "address": "Jurbarkas, Muitinės g. 22A",
      "city": "Jurbarkas",
      "lat": 55.078109,
      "lon": 22.744778,
      "source": "fscc-api"
    },
    {
      "network": "Baltic Petroleum",
      "address": "Vilnius, Bernardo Brazdžionio g. 2",
      "city": "Vilnius",
      "lat": 54.6133,
      "lon": 25.308675,
      "source": "fscc-api"
    },
    {
      "network": "Baltic Petroleum",
      "address": "Mažeikių r., Užežerės k., Gardenio g. 39",
      "city": "Užežerės k.",
      "lat": 56.163959,
      "lon": 22.101525,
      "source": "fscc-api"
    },
    {
      "network": "Baltic Petroleum",
      "address": "Pakruojis, Statybininkų g. 28",
      "city": "Pakruojis",
      "lat": 55.974508,
      "lon": 23.86893,
      "source": "fscc-api"
    },
    {
      "network": "Baltic Petroleum",
      "address": "Vilnius, S. Batoro g. 15",
      "city": "Vilnius",
      "lat": 54.692192,
      "lon": 25.346693,
      "source": "fscc-api"
    },
    {
      "network": "Baltic Petroleum",
      "address": "Zarasų r. sav., Padustėlio k., Vytauto Striogos g. 4A",
      "city": "Padustėlio k.",
      "lat": 55.740159,
      "lon": 25.852449,
      "source": "fscc-api"
    },
    {
      "network": "Baltic Petroleum",
      "address": "Kėdainiai, J. Basanavičiaus 95B",
      "city": "Kėdainiai",
      "lat": 55.276904,
      "lon": 23.955788,
      "source": "fscc-api"
    },
    {
      "network": "Baltic Petroleum",
      "address": "Klaipėda, Tilžės g. 90",
      "city": "Klaipėda",
      "lat": 55.700992,
      "lon": 21.200408,
      "source": "fscc-api"
    },
    {
      "network": "Baltic Petroleum",
      "address": "Vilnius, Zujūnų g. 2A",
      "city": "Vilnius",
      "lat": 54.710932,
      "lon": 25.161516,
      "source": "fscc-api"
    },
    {
      "network": "Baltic Petroleum",
      "address": "Kauno r. sav., Ringaudų sen., Ringaudų k., Gėlių g. 1A",
      "city": "Ringaudų k.",
      "lat": 54.890013,
      "lon": 23.806236,
      "source": "fscc-api"
    },
    {
      "network": "Baltic Petroleum",
      "address": "Utena, J. Basanavičiaus 1B",
      "city": "Utena",
      "lat": 55.49533,
      "lon": 25.575028,
      "source": "fscc-api"
    },
    {
      "network": "Baltic Petroleum",
      "address": "Kaunas, Chemijos g. 6",
      "city": "Kaunas",
      "lat": 54.9032,
      "lon": 23.982769,
      "source": "fscc-api"
    },
    {
      "network": "Baltic Petroleum",
      "address": "Vilniaus r. sav., Nemenčinės sen., Vilkaraisčio k.",
      "city": "Vilkaraisčio k.",
      "lat": 54.863291,
      "lon": 25.490933,
      "source": "fscc-api"
    },
    {
      "network": "Baltic Petroleum",
      "address": "Jonavos r., Gudžioniu k., Plento g. 24",
      "city": "Gudžioniu k.",
      "lat": 55.099135,
      "lon": 24.31627,
      "source": "fscc-api"
    },
    {
      "network": "Baltic Petroleum",
      "address": "Kaišiadorių r., Triliškiu k., Kauno pl. 5",
      "city": "Triliškiu k.",
      "lat": 54.816962,
      "lon": 24.436618,
      "source": "fscc-api"
    },
    {
      "network": "Baltic Petroleum",
      "address": "Šakiai, Sodų g. 1",
      "city": "Šakiai",
      "lat": 54.945754,
      "lon": 23.04613,
      "source": "fscc-api"
    },
    {
      "network": "Baltic Petroleum",
      "address": "Vilnius, Molėtų pl. 27A",
      "city": "Vilnius",
      "lat": 54.767745,
      "lon": 25.272406,
      "source": "fscc-api"
    },
    {
      "network": "Baltic Petroleum",
      "address": "N. Akmenė, V. Kudirkos g. 21A",
      "city": "N. Akmenė",
      "lat": 56.318461,
      "lon": 22.885615,
      "source": "fscc-api"
    },
    {
      "network": "Baltic Petroleum",
      "address": "Varėna, Čiurlionio g. 63",
      "city": "Varėna",
      "lat": 54.218274,
      "lon": 24.566177,
      "source": "fscc-api"
    },
    {
      "network": "Baltic Petroleum",
      "address": "Lazdijai, Turistu g. 88",
      "city": "Lazdijai",
      "lat": 54.220722,
      "lon": 23.508868,
      "source": "fscc-api"
    },
    {
      "network": "Baltic Petroleum",
      "address": "Kaunas, Vaidoto g. 153",
      "city": "Kaunas",
      "lat": 54.861298,
      "lon": 23.958563,
      "source": "fscc-api"
    },
    {
      "network": "Baltic Petroleum",
      "address": "Mažeikių r., Sav., Tirkšliai, Laukų g. 10",
      "city": "Tirkšliai",
      "lat": 56.262555,
      "lon": 22.310453,
      "source": "fscc-api"
    },
    {
      "network": "Baltic Petroleum",
      "address": "Šilalės raj., Laukuvos sen., Bučių k.",
      "city": "Šilalės raj., Laukuvos sen.",
      "lat": 55.57018,
      "lon": 22.17651,
      "source": "fscc-api"
    },
    {
      "network": "Baltic Petroleum",
      "address": "Biržų r., Valantiškio k.",
      "city": "Valantiškio k.",
      "lat": 56.197343,
      "lon": 24.709643,
      "source": "fscc-api"
    },
    {
      "network": "Baltic Petroleum",
      "address": "Telšiai, Šiauliu pl. 12",
      "city": "Telšiai",
      "lat": 56.004156,
      "lon": 22.24464,
      "source": "fscc-api"
    },
    {
      "network": "Baltic Petroleum",
      "address": "Alytus, Santaikos g. 33",
      "city": "Alytus",
      "lat": 54.38677,
      "lon": 24.033208,
      "source": "fscc-api"
    },
    {
      "network": "Baltic Petroleum",
      "address": "Raseinių r. sav., Kalnujų sen., Kalnujų k. 1",
      "city": "Kalnujų k. 1",
      "lat": 55.335647,
      "lon": 23.102326,
      "source": "fscc-api"
    },
    {
      "network": "Baltic Petroleum",
      "address": "Kupiškio r., Noriūnų k., Parko g. 3A",
      "city": "Noriūnų k.",
      "lat": 55.796541,
      "lon": 24.888993,
      "source": "fscc-api"
    },
    {
      "network": "Baltic Petroleum",
      "address": "Mažeikiai, M. Daukšos g. 17",
      "city": "Mažeikiai",
      "lat": 56.3051,
      "lon": 22.350699,
      "source": "fscc-api"
    },
    {
      "network": "Baltic Petroleum",
      "address": "Panevėžys, Smėlynės g. 169",
      "city": "Panevėžys",
      "lat": 55.757611,
      "lon": 24.367739,
      "source": "fscc-api"
    },
    {
      "network": "Baltic Petroleum",
      "address": "Marijampolės r., Pietarių k., Kauno g. 164",
      "city": "Pietarių k.",
      "lat": 54.586919,
      "lon": 23.384638,
      "source": "fscc-api"
    },
    {
      "network": "Baltic Petroleum",
      "address": "Palanga, Klaipėdos pl. 44",
      "city": "Palanga",
      "lat": 55.915491,
      "lon": 21.078212,
      "source": "fscc-api"
    },
    {
      "network": "Baltic Petroleum",
      "address": "Klaipėda, Liepu g. 79A",
      "city": "Klaipėda",
      "lat": 55.720835,
      "lon": 21.152538,
      "source": "fscc-api"
    },
    {
      "network": "Baltic Petroleum",
      "address": "Druskininkų r., Leipalingis, Merkinės g. 37",
      "city": "Leipalingis",
      "lat": 54.094631,
      "lon": 23.871494,
      "source": "fscc-api"
    },
    {
      "network": "Baltic Petroleum",
      "address": "Raseiniai, Vilniaus g. 30",
      "city": "Raseiniai",
      "lat": 55.370856,
      "lon": 23.133187,
      "source": "fscc-api"
    },
    {
      "network": "Baltic Petroleum",
      "address": "Prienai, Vilniaus g. 3A",
      "city": "Prienai",
      "lat": 54.628393,
      "lon": 23.958325,
      "source": "fscc-api"
    },
    {
      "network": "Baltic Petroleum",
      "address": "Anykščiai, Mindaugo g. 23",
      "city": "Anykščiai",
      "lat": 55.508475,
      "lon": 25.09633,
      "source": "fscc-api"
    },
    {
      "network": "Baltic Petroleum",
      "address": "Kaunas, Taikos pr. 120",
      "city": "Kaunas",
      "lat": 54.917432,
      "lon": 24.034789,
      "source": "fscc-api"
    },
    {
      "network": "Baltic Petroleum",
      "address": "Vilnius, Antakalnio g. 128",
      "city": "Vilnius",
      "lat": 54.722219,
      "lon": 25.317234,
      "source": "fscc-api"
    },
    {
      "network": "Baltic Petroleum",
      "address": "Panevežys, Velžio kelias 74",
      "city": "Panevežys",
      "lat": 55.721941,
      "lon": 24.391535,
      "source": "fscc-api"
    },
    {
      "network": "Emsi",
      "address": "Klevų g. 15, Plungė, Lietuva",
      "city": "",
      "lat": 55.904329,
      "lon": 21.862935,
      "source": "wpgmza"
    },
    {
      "network": "Emsi",
      "address": "Antakalnio gatvė 63, Vilnius, Lietuva",
      "city": "",
      "lat": 54.712396,
      "lon": 25.316465,
      "source": "wpgmza"
    },
    {
      "network": "Emsi",
      "address": "Žirmūnų gatvė 117, Vilnius, Lietuva",
      "city": "",
      "lat": 54.724361,
      "lon": 25.3044,
      "source": "wpgmza"
    },
    {
      "network": "Emsi",
      "address": "Kaunas, Kauno apskritis, Lietuva",
      "city": "",
      "lat": 54.898521,
      "lon": 23.903596,
      "source": "wpgmza"
    },
    {
      "network": "Emsi",
      "address": "Utena, Utenos apskritis, Lietuva",
      "city": "",
      "lat": 55.50004,
      "lon": 25.609385,
      "source": "wpgmza"
    },
    {
      "network": "Emsi",
      "address": "Lukiškių gatvė 5, Vilnius, Lietuva",
      "city": "",
      "lat": 54.693055,
      "lon": 25.268165,
      "source": "wpgmza"
    },
    {
      "network": "Emsi",
      "address": "Gluosnių g. 4a, Šilutė, Klaipėdos apskritis, Lietuva",
      "city": "",
      "lat": 55.349229,
      "lon": 21.468518,
      "source": "wpgmza"
    },
    {
      "network": "Emsi",
      "address": "Ūdrijos g. 2, Alytus, Lietuva",
      "city": "",
      "lat": 54.408331,
      "lon": 24.01636,
      "source": "wpgmza"
    },
    {
      "network": "Emsi",
      "address": "Žemaičių g. 34, Ariogala, Raseinių sen.",
      "city": "",
      "lat": 55.265001,
      "lon": 23.467125,
      "source": "wpgmza"
    },
    {
      "network": "Emsi",
      "address": "Jaunimo g. 2A, Biržai, Biržų rajono savivaldybė, Lietuva",
      "city": "",
      "lat": 56.207704,
      "lon": 24.77073,
      "source": "wpgmza"
    },
    {
      "network": "Emsi",
      "address": "Paukštininkų g. 4, Kaišiadorys, Kaišiadorių rajono savivaldybė, Lietuva",
      "city": "",
      "lat": 54.863556,
      "lon": 24.438794,
      "source": "wpgmza"
    },
    {
      "network": "Emsi",
      "address": "Emsi, Dirbtuvių gatvė, Gudiena, Kaišiadorių rajono savivaldybė, Lietuva",
      "city": "",
      "lat": 54.865313,
      "lon": 24.588554,
      "source": "wpgmza"
    },
    {
      "network": "Emsi",
      "address": "130 17, Ilgakiemis 53288, Lietuva",
      "city": "",
      "lat": 54.780134,
      "lon": 23.877131,
      "source": "wpgmza"
    },
    {
      "network": "Emsi",
      "address": "55.711836, 21.265073",
      "city": "",
      "lat": 55.711836,
      "lon": 21.265073,
      "source": "wpgmza"
    },
    {
      "network": "Emsi",
      "address": "55.790381, 21.141689",
      "city": "",
      "lat": 55.790381,
      "lon": 21.141689,
      "source": "wpgmza"
    },
    {
      "network": "Emsi",
      "address": "Minijos g. 154a, Klaipėda, Klaipėdos apskritis, Lietuva",
      "city": "",
      "lat": 55.668911,
      "lon": 21.158973,
      "source": "wpgmza"
    },
    {
      "network": "Emsi",
      "address": "EMSI, Lazdijų rajono savivaldybė, Lietuva",
      "city": "",
      "lat": 54.175561,
      "lon": 23.481046,
      "source": "wpgmza"
    },
    {
      "network": "Emsi",
      "address": "Sodų g. 3A, Lentvaris, Lietuva",
      "city": "",
      "lat": 54.643334,
      "lon": 25.05355,
      "source": "wpgmza"
    },
    {
      "network": "Emsi",
      "address": "Stoties g. 6b, Marijampolė, Marijampolės apskritis, Lietuva",
      "city": "",
      "lat": 54.565209,
      "lon": 23.368721,
      "source": "wpgmza"
    },
    {
      "network": "Emsi",
      "address": "Pasieniečių g. 3, Medininkai",
      "city": "",
      "lat": 54.549881,
      "lon": 25.678005,
      "source": "wpgmza"
    },
    {
      "network": "Emsi",
      "address": "Ramygalos g. 186a, Panevėžys, Panevėžio apskritis, Lietuva",
      "city": "",
      "lat": 55.709913,
      "lon": 24.372552,
      "source": "wpgmza"
    },
    {
      "network": "Emsi",
      "address": "Nemuno g. 79a, Panevėžys, Panevėžio apskritis, Lietuva",
      "city": "",
      "lat": 55.731076,
      "lon": 24.341052,
      "source": "wpgmza"
    },
    {
      "network": "Emsi",
      "address": "55.906239, 24.338865",
      "city": "",
      "lat": 55.906239,
      "lon": 24.338865,
      "source": "wpgmza"
    },
    {
      "network": "Emsi",
      "address": "S. Nėries g. 38, Pilviškiai, Vilkaviškis, Lietuva",
      "city": "",
      "lat": 54.663808,
      "lon": 23.029367,
      "source": "wpgmza"
    },
    {
      "network": "Emsi",
      "address": "Ukmergės g. 437, Vilnius, Vilniaus apskritis 14183, Lietuva",
      "city": "",
      "lat": 54.753512,
      "lon": 25.211742,
      "source": "wpgmza"
    },
    {
      "network": "Emsi",
      "address": "Neravai 02300, Lietuva",
      "city": "",
      "lat": 54.671066,
      "lon": 25.117689,
      "source": "wpgmza"
    },
    {
      "network": "Emsi",
      "address": "Jeruzalės g. 2, Vilnius, Vilniaus apskritis, Lietuva",
      "city": "",
      "lat": 54.739851,
      "lon": 25.276131,
      "source": "wpgmza"
    },
    {
      "network": "Emsi",
      "address": "Kareivių g. 4, Vilnius, Lietuva",
      "city": "",
      "lat": 54.717885,
      "lon": 25.295762,
      "source": "wpgmza"
    },
    {
      "network": "Emsi",
      "address": "Laisvės pr. 80b, Vilnius, Vilniaus apskritis, Lietuva",
      "city": "",
      "lat": 54.723392,
      "lon": 25.232888,
      "source": "wpgmza"
    },
    {
      "network": "Emsi",
      "address": "Liepkalnio g. 112a, Vilnius, Vilniaus apskritis, Lietuva",
      "city": "",
      "lat": 54.654868,
      "lon": 25.302985,
      "source": "wpgmza"
    },
    {
      "network": "Emsi",
      "address": "Pajautos g. 31, Vilnius, Vilniaus apskritis, Lietuva",
      "city": "",
      "lat": 54.710396,
      "lon": 25.166804,
      "source": "wpgmza"
    },
    {
      "network": "Emsi",
      "address": "Savanorių pr. 225, Vilnius, Lietuva",
      "city": "",
      "lat": 54.64091,
      "lon": 25.184263,
      "source": "wpgmza"
    },
    {
      "network": "Emsi",
      "address": "Trakų vokė, Vilnius",
      "city": "",
      "lat": 54.62384,
      "lon": 25.111265,
      "source": "wpgmza"
    },
    {
      "network": "Emsi",
      "address": "Aukštieji Semeniukai, 21401 Trakų r. sav., Lietuva",
      "city": "",
      "lat": 54.709552,
      "lon": 24.999824,
      "source": "wpgmza"
    },
    {
      "network": "Emsi",
      "address": "54.83562479598047, 25.460384977050126",
      "city": "",
      "lat": 54.835625,
      "lon": 25.460385,
      "source": "wpgmza"
    },
    {
      "network": "Emsi",
      "address": "54.622787, 25.105291",
      "city": "",
      "lat": 54.622787,
      "lon": 25.105291,
      "source": "wpgmza"
    },
    {
      "network": "Emsi",
      "address": "Ateities pl. 40B, Kaunas, Lithuania",
      "city": "",
      "lat": 54.921892,
      "lon": 24.047439,
      "source": "wpgmza"
    },
    {
      "network": "Emsi",
      "address": "Liuksemburgo akl. 27, Kaunas",
      "city": "",
      "lat": 54.859352,
      "lon": 23.83696,
      "source": "wpgmza"
    },
    {
      "network": "Emsi",
      "address": "Žemaičių g. 30c, Ariogala, Kauno apskritis, Lithuania",
      "city": "",
      "lat": 55.260783,
      "lon": 23.489305,
      "source": "wpgmza"
    },
    {
      "network": "Emsi",
      "address": "Palemono g. 3A, Kaunas, Lithuania",
      "city": "",
      "lat": 54.901009,
      "lon": 24.031254,
      "source": "wpgmza"
    },
    {
      "network": "Emsi",
      "address": "Taikos prospektas 124, Klaipėda, Lithuania",
      "city": "",
      "lat": 55.661398,
      "lon": 21.176028,
      "source": "wpgmza"
    },
    {
      "network": "Emsi",
      "address": "Kauno g. 165, Marijampolė, Lithuania",
      "city": "",
      "lat": 54.592791,
      "lon": 23.389471,
      "source": "wpgmza"
    },
    {
      "network": "Emsi",
      "address": "Europos g. 11, Lithuania",
      "city": "",
      "lat": 54.558184,
      "lon": 23.275133,
      "source": "wpgmza"
    },
    {
      "network": "Emsi",
      "address": "Sodų g. 3, Lentvaris, Lietuva",
      "city": "",
      "lat": 54.643382,
      "lon": 25.053213,
      "source": "wpgmza"
    },
    {
      "network": "Emsi",
      "address": "56.063674, 24.426118",
      "city": "",
      "lat": 56.063674,
      "lon": 24.426118,
      "source": "wpgmza"
    },
    {
      "network": "Emsi",
      "address": "Dirbtuvių g. 2, Gudiena, Kauno apskritis",
      "city": "",
      "lat": 54.868863,
      "lon": 24.476608,
      "source": "wpgmza"
    },
    {
      "network": "Emsi",
      "address": "54.7077495909732, 24.996165800839663",
      "city": "",
      "lat": 54.70775,
      "lon": 24.996166,
      "source": "wpgmza"
    },
    {
      "network": "Emsi",
      "address": "Kėdainių r. sav. 58212, Lietuva",
      "city": "",
      "lat": 55.202482,
      "lon": 23.626582,
      "source": "wpgmza"
    },
    {
      "network": "Emsi",
      "address": "Savanorių g. 5, Varėna, Lietuva",
      "city": "",
      "lat": 54.210237,
      "lon": 24.576496,
      "source": "wpgmza"
    },
    {
      "network": "Emsi",
      "address": "140, Aržuolupiai, Marijampolės apskritis 71107, Lietuva",
      "city": "",
      "lat": 54.953272,
      "lon": 23.083431,
      "source": "wpgmza"
    },
    {
      "network": "Emsi",
      "address": "28 Muitinės gatvė, Jurbarkas 74111, Lietuva",
      "city": "",
      "lat": 55.077558,
      "lon": 22.74898,
      "source": "wpgmza"
    },
    {
      "network": "Emsi",
      "address": "S. Daukanto g. 66, Jurbarkas, Tauragės apskritis, Lietuva",
      "city": "",
      "lat": 55.082776,
      "lon": 22.776673,
      "source": "wpgmza"
    },
    {
      "network": "Emsi",
      "address": "Knygnešių g. 9, Jurbarkas, Tauragės apskritis, Lietuva",
      "city": "",
      "lat": 55.087389,
      "lon": 22.747097,
      "source": "wpgmza"
    },
    {
      "network": "Emsi",
      "address": "14 137, Gelgaudiškio seniūnija, Marijampolės apskritis 71435, Lietuva",
      "city": "",
      "lat": 55.017681,
      "lon": 22.986397,
      "source": "wpgmza"
    },
    {
      "network": "Emsi",
      "address": "E67, 58111, Lietuva",
      "city": "",
      "lat": 55.304501,
      "lon": 24.091973,
      "source": "wpgmza"
    },
    {
      "network": "Emsi",
      "address": "Nemuno g. 63a, Kiduliai",
      "city": "",
      "lat": 55.06373,
      "lon": 22.78052,
      "source": "wpgmza"
    },
    {
      "network": "Emsi",
      "address": "Giedručiai 71124, Lithuania",
      "city": "",
      "lat": 54.954054,
      "lon": 23.024608,
      "source": "wpgmza"
    },
    {
      "network": "Emsi",
      "address": "Rūdos k., LT-70313",
      "city": "",
      "lat": 54.601951,
      "lon": 23.195148,
      "source": "wpgmza"
    },
    {
      "network": "Emsi",
      "address": "S. Šimkaus g. 69, Seredžius, Seredžiaus sen.",
      "city": "",
      "lat": 55.078918,
      "lon": 23.39694,
      "source": "wpgmza"
    },
    {
      "network": "Emsi",
      "address": "Sembos g. 5, Šiauliai, Lithuania",
      "city": "",
      "lat": 55.895367,
      "lon": 23.276915,
      "source": "wpgmza"
    },
    {
      "network": "Emsi",
      "address": "Miško g. 62, Radviliškis, Lithuania",
      "city": "",
      "lat": 55.802003,
      "lon": 23.563835,
      "source": "wpgmza"
    },
    {
      "network": "Emsi",
      "address": "Vasario 16-osios gatvė 70, Jonava, Lithuania",
      "city": "",
      "lat": 55.071207,
      "lon": 24.257898,
      "source": "wpgmza"
    },
    {
      "network": "Emsi",
      "address": "55.670168, 24.346048",
      "city": "",
      "lat": 55.670168,
      "lon": 24.346048,
      "source": "wpgmza"
    },
    {
      "network": "Emsi",
      "address": "54.809484, 23.853669",
      "city": "",
      "lat": 54.809484,
      "lon": 23.853669,
      "source": "wpgmza"
    },
    {
      "network": "Emsi",
      "address": "54.92783689898629, 23.97206399635007",
      "city": "",
      "lat": 54.927837,
      "lon": 23.972064,
      "source": "wpgmza"
    },
    {
      "network": "Emsi",
      "address": "54.932030649920115, 23.917912497803048",
      "city": "",
      "lat": 54.932031,
      "lon": 23.917912,
      "source": "wpgmza"
    },
    {
      "network": "Emsi",
      "address": "54.90833119993016, 23.993012561827246",
      "city": "",
      "lat": 54.908331,
      "lon": 23.993013,
      "source": "wpgmza"
    },
    {
      "network": "Emsi",
      "address": "Savanorių pr. 402, Kaunas, Kauno m. sav., Lietuva",
      "city": "",
      "lat": 54.927194,
      "lon": 23.970498,
      "source": "wpgmza"
    },
    {
      "network": "Emsi",
      "address": "Jonavos g. 292b, Kaunas, Kauno m. sav., Lietuva",
      "city": "",
      "lat": 54.931664,
      "lon": 23.918043,
      "source": "wpgmza"
    },
    {
      "network": "Emsi",
      "address": "Draugystės g. 8B, Kaunas, Kauno m. sav., Lietuva",
      "city": "",
      "lat": 54.908019,
      "lon": 23.992065,
      "source": "wpgmza"
    },
    {
      "network": "Emsi",
      "address": "Palemono gatvė 3A, Kaunas, Kauno m. sav., Lietuva",
      "city": "",
      "lat": 54.900985,
      "lon": 24.031209,
      "source": "wpgmza"
    },
    {
      "network": "Emsi",
      "address": "Liuksemburgo aklg. 27, Kaunas, Kauno m. sav., Lietuva",
      "city": "",
      "lat": 54.859234,
      "lon": 23.837084,
      "source": "wpgmza"
    },
    {
      "network": "Emsi",
      "address": "Marijampolės g. 58, Kaunas, Kauno r. sav., Lietuva",
      "city": "",
      "lat": 54.809532,
      "lon": 23.859559,
      "source": "wpgmza"
    },
    {
      "network": "Emsi",
      "address": "Taikos prospektas 124, Klaipėda, Klaipėdos m. sav., Lietuva",
      "city": "",
      "lat": 55.661169,
      "lon": 21.176253,
      "source": "wpgmza"
    },
    {
      "network": "Emsi",
      "address": "38242 Panevėžio r. sav., Lietuva",
      "city": "",
      "lat": 55.649218,
      "lon": 24.355982,
      "source": "wpgmza"
    },
    {
      "network": "Emsi",
      "address": "69338 Marijampolės sav., Lietuva",
      "city": "",
      "lat": 54.562177,
      "lon": 23.274006,
      "source": "wpgmza"
    },
    {
      "network": "Emsi",
      "address": "68100 Marijampolės sav., Lietuva",
      "city": "",
      "lat": 54.584706,
      "lon": 23.376985,
      "source": "wpgmza"
    },
    {
      "network": "Emsi",
      "address": "56.06385477273184, 24.426394032812485",
      "city": "",
      "lat": 56.063855,
      "lon": 24.426394,
      "source": "wpgmza"
    },
    {
      "network": "Emsi",
      "address": "Sembos g. 5, Šiauliai, Šiaulių m. sav., Lietuva",
      "city": "",
      "lat": 55.896673,
      "lon": 23.274129,
      "source": "wpgmza"
    },
    {
      "network": "Emsi",
      "address": "Nemuno g. 63a, Kiduliai",
      "city": "",
      "lat": 55.064429,
      "lon": 22.780661,
      "source": "wpgmza"
    },
    {
      "network": "Emsi",
      "address": "EMSI, Sereikoniai, Pasvalio rajono savivaldybė, Lietuva",
      "city": "",
      "lat": 55.908581,
      "lon": 24.354983,
      "source": "wpgmza"
    },
    {
      "network": "Emsi",
      "address": "54.87314621866112, 25.073408319604475",
      "city": "",
      "lat": 54.873146,
      "lon": 25.073408,
      "source": "wpgmza"
    },
    {
      "network": "Emsi",
      "address": "54.95173426912465, 23.893606107795726",
      "city": "",
      "lat": 54.951734,
      "lon": 23.893606,
      "source": "wpgmza"
    },
    {
      "network": "Emsi",
      "address": "T. Masiulio g. 16A, Kaunas, 52375 Kauno m. sav.",
      "city": "",
      "lat": 54.884588,
      "lon": 24.006121,
      "source": "wpgmza"
    },
    {
      "network": "Emsi",
      "address": "Kirtimų g. 33, Vilnius, 02300 Vilniaus m. sav.",
      "city": "",
      "lat": 54.627394,
      "lon": 25.149295,
      "source": "wpgmza"
    },
    {
      "network": "Emsi",
      "address": "55.277921205084525, 23.341360153279588",
      "city": "",
      "lat": 55.277921,
      "lon": 23.34136,
      "source": "wpgmza"
    },
    {
      "network": "Emsi",
      "address": "54.97189745233967, 23.858992989585428",
      "city": "",
      "lat": 54.971897,
      "lon": 23.858993,
      "source": "wpgmza"
    },
    {
      "network": "Neste",
      "address": "Talino g. 2C",
      "city": "Vilnius",
      "lat": 54.7139,
      "lon": 25.20905,
      "source": "neste-locator"
    },
    {
      "network": "Neste",
      "address": "Erfurto g. 41",
      "city": "Vilnius",
      "lat": 54.67261,
      "lon": 25.19828,
      "source": "neste-locator"
    },
    {
      "network": "Neste",
      "address": "Plieno g. 1",
      "city": "Klaipėda",
      "lat": 55.67298,
      "lon": 21.201,
      "source": "neste-locator"
    },
    {
      "network": "Neste",
      "address": "Žirmūnų g. 68B",
      "city": "Vilnius",
      "lat": 54.71753,
      "lon": 25.30448,
      "source": "neste-locator"
    },
    {
      "network": "Neste",
      "address": "Šilutės pl. 30",
      "city": "Klaipėda",
      "lat": 55.69314,
      "lon": 21.17496,
      "source": "neste-locator"
    },
    {
      "network": "Neste",
      "address": "Rygos g. 2",
      "city": "Vilnius",
      "lat": 54.71557,
      "lon": 25.22888,
      "source": "neste-locator"
    },
    {
      "network": "Neste",
      "address": "Pramonės pr. 6A",
      "city": "Kaunas",
      "lat": 54.90991,
      "lon": 23.98374,
      "source": "neste-locator"
    },
    {
      "network": "Neste",
      "address": "Klaipėdos g. 81",
      "city": "Panevėžys",
      "lat": 55.72831,
      "lon": 24.33242,
      "source": "neste-locator"
    },
    {
      "network": "Neste",
      "address": "Jonavos g. 110",
      "city": "Kaunas",
      "lat": 54.91333,
      "lon": 23.91162,
      "source": "neste-locator"
    },
    {
      "network": "Neste",
      "address": "Savanorių pr. 220A",
      "city": "Vilnius",
      "lat": 54.64421,
      "lon": 25.20697,
      "source": "neste-locator"
    },
    {
      "network": "Neste",
      "address": "Parodų g. 1A",
      "city": "Vilnius",
      "lat": 54.67344,
      "lon": 25.22406,
      "source": "neste-locator"
    },
    {
      "network": "Neste",
      "address": "Gegužių g. 28",
      "city": "Šiauliai",
      "lat": 55.90607,
      "lon": 23.25953,
      "source": "neste-locator"
    },
    {
      "network": "Neste",
      "address": "Veiverių g. 132D",
      "city": "Kaunas",
      "lat": 54.87575,
      "lon": 23.89093,
      "source": "neste-locator"
    },
    {
      "network": "Neste",
      "address": "Klaipėdos g. 66",
      "city": "Panevėžys",
      "lat": 55.72768,
      "lon": 24.34879,
      "source": "neste-locator"
    },
    {
      "network": "Neste",
      "address": "Tilžės g. 72",
      "city": "Šiauliai",
      "lat": 55.92028,
      "lon": 23.29298,
      "source": "neste-locator"
    },
    {
      "network": "Neste",
      "address": "Žemaičių pl. 26",
      "city": "Kaunas",
      "lat": 54.92557,
      "lon": 23.89179,
      "source": "neste-locator"
    },
    {
      "network": "Neste",
      "address": "Kauno g. 26",
      "city": "Vilnius",
      "lat": 54.67164,
      "lon": 25.27008,
      "source": "neste-locator"
    },
    {
      "network": "Neste",
      "address": "Artojo g. 2",
      "city": "Klaipėda",
      "lat": 55.71766,
      "lon": 21.15177,
      "source": "neste-locator"
    },
    {
      "network": "Neste",
      "address": "M. Daukšos g. 29",
      "city": "Mažeikiai",
      "lat": 56.3012,
      "lon": 22.34985,
      "source": "neste-locator"
    },
    {
      "network": "Neste",
      "address": "Geležinio Vilko g. 63",
      "city": "Vilnius",
      "lat": 54.71195,
      "lon": 25.27067,
      "source": "neste-locator"
    },
    {
      "network": "Neste",
      "address": "R. Kalantos g. 27",
      "city": "Kaunas",
      "lat": 54.89506,
      "lon": 23.98586,
      "source": "neste-locator"
    },
    {
      "network": "Neste",
      "address": "J. Basanavičiaus g. 91E",
      "city": "Kedainiai",
      "lat": 55.27815,
      "lon": 23.95989,
      "source": "neste-locator"
    },
    {
      "network": "Neste",
      "address": "S. Stanevičiaus g. 3",
      "city": "Vilnius",
      "lat": 54.72145,
      "lon": 25.25608,
      "source": "neste-locator"
    },
    {
      "network": "Neste",
      "address": "Santaikos g. 34A",
      "city": "Alytus",
      "lat": 54.38706,
      "lon": 24.02632,
      "source": "neste-locator"
    },
    {
      "network": "Neste",
      "address": "Kedrų g. 2",
      "city": "Vilnius",
      "lat": 54.67723,
      "lon": 25.25566,
      "source": "neste-locator"
    },
    {
      "network": "Neste",
      "address": "Molėtų pl. 8",
      "city": "Vilnius",
      "lat": 54.75489,
      "lon": 25.27126,
      "source": "neste-locator"
    },
    {
      "network": "Neste",
      "address": "Ateities pl. 50B",
      "city": "Kaunas",
      "lat": 54.92626,
      "lon": 24.06031,
      "source": "neste-locator"
    },
    {
      "network": "Neste",
      "address": "P. Lukšio g. 22",
      "city": "Vilnius",
      "lat": 54.71196,
      "lon": 25.29313,
      "source": "neste-locator"
    },
    {
      "network": "Neste",
      "address": "J. Basanavičiaus g. 129",
      "city": "Utena",
      "lat": 55.50511,
      "lon": 25.62464,
      "source": "neste-locator"
    },
    {
      "network": "Neste",
      "address": "Europos g. 1, Salaperaugio k., Liubavo sen., Kalvarijos sav.",
      "city": "Kalvarijos sav.",
      "lat": 54.32984,
      "lon": 23.15031,
      "source": "neste-locator"
    },
    {
      "network": "Neste",
      "address": "Ažuolpamušio g. 1A, Raubonių k., Pasvalio r.",
      "city": "Raubonys",
      "lat": 56.1152,
      "lon": 24.47067,
      "source": "neste-locator"
    },
    {
      "network": "Neste",
      "address": "Katyčių k.",
      "city": "Šilalės r. sav.",
      "lat": 55.5212,
      "lon": 22.36586,
      "source": "neste-locator"
    },
    {
      "network": "Neste",
      "address": "Geležinio Vilko g. 37A",
      "city": "Vilnius",
      "lat": 54.70161,
      "lon": 25.26372,
      "source": "neste-locator"
    },
    {
      "network": "Neste",
      "address": "Architektų g. 130",
      "city": "Vilnius",
      "lat": 54.68087,
      "lon": 25.20763,
      "source": "neste-locator"
    },
    {
      "network": "Neste",
      "address": "Taikos pr. 80A",
      "city": "Kaunas",
      "lat": 54.91209,
      "lon": 23.97267,
      "source": "neste-locator"
    },
    {
      "network": "Neste",
      "address": "Islandijos pl. 191E",
      "city": "Kaunas",
      "lat": 54.93142,
      "lon": 23.95076,
      "source": "neste-locator"
    },
    {
      "network": "Neste",
      "address": "Klaipėdos g. 144B",
      "city": "Panevėžys",
      "lat": 55.73065,
      "lon": 24.31611,
      "source": "neste-locator"
    },
    {
      "network": "Neste",
      "address": "Smiltelės g. 17",
      "city": "Klaipėda",
      "lat": 55.67012,
      "lon": 21.19296,
      "source": "neste-locator"
    },
    {
      "network": "Neste",
      "address": "Margirio g. 1B",
      "city": "Panevėžys",
      "lat": 55.71938,
      "lon": 24.34887,
      "source": "neste-locator"
    },
    {
      "network": "Neste",
      "address": "Raudondvario pl. 103",
      "city": "Kaunas",
      "lat": 54.90683,
      "lon": 23.87285,
      "source": "neste-locator"
    },
    {
      "network": "Neste",
      "address": "Justiniškių g. 14B",
      "city": "Vilnius",
      "lat": 54.70508,
      "lon": 25.21497,
      "source": "neste-locator"
    },
    {
      "network": "Neste",
      "address": "Subačiaus g. 64",
      "city": "Vilnius",
      "lat": 54.67687,
      "lon": 25.30948,
      "source": "neste-locator"
    },
    {
      "network": "Neste",
      "address": "Žirmūnų g. 54C",
      "city": "Vilnius",
      "lat": 54.70675,
      "lon": 25.30412,
      "source": "neste-locator"
    },
    {
      "network": "Neste",
      "address": "Birželio 23-osios g. 23A",
      "city": "Kaunas",
      "lat": 54.91626,
      "lon": 23.95401,
      "source": "neste-locator"
    },
    {
      "network": "Neste",
      "address": "Dubijos g. 18A",
      "city": "Šiauliai",
      "lat": 55.92926,
      "lon": 23.29436,
      "source": "neste-locator"
    },
    {
      "network": "Neste",
      "address": "Europos g. 6, Naujosios Valios k., Sangrūdos sen., Kalvarijos sav.",
      "city": "Kalvarijos sav.",
      "lat": 54.32832,
      "lon": 23.15056,
      "source": "neste-locator"
    },
    {
      "network": "Neste",
      "address": "Dariaus ir Girėno g. 17",
      "city": "Vilnius",
      "lat": 54.65507,
      "lon": 25.27073,
      "source": "neste-locator"
    },
    {
      "network": "Neste",
      "address": "Šilutės pl. 5C",
      "city": "Klaipėda",
      "lat": 55.70311,
      "lon": 21.16478,
      "source": "neste-locator"
    },
    {
      "network": "Neste",
      "address": "Vilniaus pl. 9, Jakų k., Klaipėdos r. sav.",
      "city": "Klaipėda",
      "lat": 55.70659,
      "lon": 21.23853,
      "source": "neste-locator"
    },
    {
      "network": "Neste",
      "address": "Panevėžio aplinkl. 7, Šilagalio k., Panevėžio r. sav.",
      "city": "Panevėžys",
      "lat": 55.67037,
      "lon": 24.34845,
      "source": "neste-locator"
    },
    {
      "network": "Neste",
      "address": "Vijoklių g. 1C, Ramučių k., Kauno r. sav.",
      "city": "Kaunas",
      "lat": 54.94831,
      "lon": 24.0178,
      "source": "neste-locator"
    },
    {
      "network": "Neste",
      "address": "Pilaitės pr. 27",
      "city": "Vilnius",
      "lat": 54.70877,
      "lon": 25.18972,
      "source": "neste-locator"
    },
    {
      "network": "Neste",
      "address": "Sendvario g. 2, Sudmantų k., Sendvario sen.",
      "city": "Klaipėda",
      "lat": 55.70602,
      "lon": 21.20259,
      "source": "neste-locator"
    },
    {
      "network": "Neste",
      "address": "Vakarų g. 14, Kumpių k., Kauno r. sav.",
      "city": "Kumpiu k., Kauno r.",
      "lat": 54.94984,
      "lon": 23.87374,
      "source": "neste-locator"
    },
    {
      "network": "Neste",
      "address": "Minijos g. 180",
      "city": "Klaipėda",
      "lat": 55.65052,
      "lon": 21.16461,
      "source": "neste-locator"
    },
    {
      "network": "Neste",
      "address": "Aplinkkelio g. 165, Kanapelkos k.",
      "city": "Kanapelka",
      "lat": 55.22168,
      "lon": 25.43672,
      "source": "neste-locator"
    },
    {
      "network": "Neste",
      "address": "Savanorių pr. 441C",
      "city": "Kaunas",
      "lat": 54.92934,
      "lon": 23.97347,
      "source": "neste-locator"
    },
    {
      "network": "Neste",
      "address": "Vakarinis aplinkkelis 18",
      "city": "Kaunas",
      "lat": 54.9338,
      "lon": 23.86774,
      "source": "neste-locator"
    },
    {
      "network": "Neste",
      "address": "Eišiškių pl. 82",
      "city": "Vilnius",
      "lat": 54.62137,
      "lon": 25.24287,
      "source": "neste-locator"
    },
    {
      "network": "Neste",
      "address": "Ukmergės g. 296",
      "city": "Vilnius",
      "lat": 54.73613,
      "lon": 25.23115,
      "source": "neste-locator"
    },
    {
      "network": "Neste",
      "address": "Pušyno g. 11, Ylių k.",
      "city": "Yliai",
      "lat": 55.41173,
      "lon": 22.83072,
      "source": "neste-locator"
    },
    {
      "network": "Neste",
      "address": "Vilniaus g. 94",
      "city": "Pabradė",
      "lat": 54.97889,
      "lon": 25.75661,
      "source": "neste-locator"
    },
    {
      "network": "Neste",
      "address": "Panerių g. 42",
      "city": "Vilnius",
      "lat": 54.66822,
      "lon": 25.26512,
      "source": "neste-locator"
    },
    {
      "network": "Neste",
      "address": "Europos pr. 43",
      "city": "Kaunas",
      "lat": 54.87534,
      "lon": 23.91146,
      "source": "neste-locator"
    },
    {
      "network": "Neste",
      "address": "Plento g. 7, Gudžionių k., Šilų sen., Jonavos r. sav.",
      "city": "Jonavos",
      "lat": 55.09568,
      "lon": 24.31259,
      "source": "neste-locator"
    },
    {
      "network": "Neste",
      "address": "Versmės g. 2",
      "city": "Radviliškis",
      "lat": 55.81384,
      "lon": 23.54581,
      "source": "neste-locator"
    },
    {
      "network": "Neste",
      "address": "Dariaus ir Girėno g. 130A",
      "city": "Tauragė",
      "lat": 55.2653,
      "lon": 22.30891,
      "source": "neste-locator"
    },
    {
      "network": "Neste",
      "address": "Sabališkių 1U",
      "city": "Elektrėnai",
      "lat": 54.78952,
      "lon": 24.67274,
      "source": "neste-locator"
    },
    {
      "network": "Neste",
      "address": "Geležinio Vilko g. 41",
      "city": "Vilnius",
      "lat": 54.70413,
      "lon": 25.2669,
      "source": "neste-locator"
    },
    {
      "network": "Neste",
      "address": "Vilkaviškio g. 61D",
      "city": "Marijampolė",
      "lat": 54.56239,
      "lon": 23.33233,
      "source": "neste-locator"
    },
    {
      "network": "Neste",
      "address": "Kupiškio g. 12",
      "city": "Atkociškės",
      "lat": 55.48189,
      "lon": 25.57905,
      "source": "neste-locator"
    },
    {
      "network": "Neste",
      "address": "Ramygalos g. 145B",
      "city": "Panevėžys",
      "lat": 55.70945,
      "lon": 24.37481,
      "source": "neste-locator"
    },
    {
      "network": "Neste",
      "address": "Taikos pr. 60",
      "city": "Klaipėda",
      "lat": 55.68886,
      "lon": 21.1552,
      "source": "neste-locator"
    },
    {
      "network": "Neste",
      "address": "Minijos g. 119",
      "city": "Klaipėda",
      "lat": 55.68441,
      "lon": 21.14966,
      "source": "neste-locator"
    },
    {
      "network": "Neste",
      "address": "Savanorių pr. 187",
      "city": "Vilnius",
      "lat": 54.64811,
      "lon": 25.21247,
      "source": "neste-locator"
    },
    {
      "network": "Neste",
      "address": "Stoties g. 4C",
      "city": "Marijampolė",
      "lat": 54.56039,
      "lon": 23.36587,
      "source": "neste-locator"
    },
    {
      "network": "Neste",
      "address": "Kuršių g. 1",
      "city": "Kaunas",
      "lat": 54.93617,
      "lon": 23.88529,
      "source": "neste-locator"
    },
    {
      "network": "Neste",
      "address": "Tunelio g. 26",
      "city": "Kaunas",
      "lat": 54.89484,
      "lon": 23.94421,
      "source": "neste-locator"
    },
    {
      "network": "Neste",
      "address": "J. Tiškevičiaus g. 19",
      "city": "Vilnius",
      "lat": 54.62428,
      "lon": 25.11174,
      "source": "neste-locator"
    },
    {
      "network": "Neste",
      "address": "Žirnių g. 17",
      "city": "Vilnius",
      "lat": 54.65665,
      "lon": 25.29206,
      "source": "neste-locator"
    },
    {
      "network": "Neste",
      "address": "Ūdrijos g. 31",
      "city": "Alytus",
      "lat": 54.40893,
      "lon": 24.0052,
      "source": "neste-locator"
    },
    {
      "network": "Neste",
      "address": "Gariūnų g. 55",
      "city": "Vilnius",
      "lat": 54.65823,
      "lon": 25.15884,
      "source": "neste-locator"
    },
    {
      "network": "Neste",
      "address": "Šiaulių pl. 1A, Gaudikaičių k.",
      "city": "Telšiai",
      "lat": 56.00488,
      "lon": 22.24028,
      "source": "neste-locator"
    },
    {
      "network": "Neste",
      "address": "Servečės g. 2",
      "city": "Vilnius",
      "lat": 54.63387,
      "lon": 25.3045,
      "source": "neste-locator"
    },
    {
      "network": "Neste",
      "address": "Panevėžio aplinkel. 22, Šilagalio km., Panevėžio raj. sav.,",
      "city": "Panevėžys",
      "lat": 55.67314,
      "lon": 24.33452,
      "source": "neste-locator"
    },
    {
      "network": "Neste",
      "address": "Kauno g. 45B",
      "city": "Ukmergė",
      "lat": 55.24206,
      "lon": 24.74291,
      "source": "neste-locator"
    },
    {
      "network": "Circle K",
      "address": "Geležinio Vilko g. 2A, Vilnius",
      "city": "Vilnius",
      "lat": 54.670918,
      "lon": 25.236569,
      "source": "circlek-web"
    },
    {
      "network": "Circle K",
      "address": "Baltupio g. 10, Vilnius",
      "city": "Vilnius",
      "lat": 54.73594,
      "lon": 25.265611,
      "source": "circlek-web"
    },
    {
      "network": "Circle K",
      "address": "A. P. Kavoliuko g. 32A, Vilnius",
      "city": "Vilnius",
      "lat": 54.695298,
      "lon": 25.218638,
      "source": "circlek-web"
    },
    {
      "network": "Circle K",
      "address": "Sporto g. 16A, Vilnius",
      "city": "Vilnius",
      "lat": 54.695012,
      "lon": 25.298001,
      "source": "circlek-web"
    },
    {
      "network": "Circle K",
      "address": "Ukmergės g. 231, Vilnius",
      "city": "Vilnius",
      "lat": 54.72019,
      "lon": 25.246241,
      "source": "circlek-web"
    },
    {
      "network": "Circle K",
      "address": "Kareivių g. 13, Vilnius",
      "city": "Vilnius",
      "lat": 54.718708,
      "lon": 25.300565,
      "source": "circlek-web"
    },
    {
      "network": "Circle K",
      "address": "A. Goštauto g. 13, Vilnius",
      "city": "Vilnius",
      "lat": 54.694412,
      "lon": 25.263362,
      "source": "circlek-web"
    },
    {
      "network": "Circle K",
      "address": "Laisvės pr. 43C, Vilnius",
      "city": "Vilnius",
      "lat": 54.709145,
      "lon": 25.228123,
      "source": "circlek-web"
    },
    {
      "network": "Circle K",
      "address": "J. Tiškevičiaus g. 24, Vilnius",
      "city": "Vilnius",
      "lat": 54.623158,
      "lon": 25.11018,
      "source": "circlek-web"
    },
    {
      "network": "Circle K",
      "address": "Eišiškių pl. 11, Vilnius",
      "city": "Vilnius",
      "lat": 54.651554,
      "lon": 25.269413,
      "source": "circlek-web"
    },
    {
      "network": "Circle K",
      "address": "Pramonės pr. 18, Kaunas",
      "city": "Kaunas",
      "lat": 54.916233,
      "lon": 23.986631,
      "source": "circlek-web"
    },
    {
      "network": "Circle K",
      "address": "Baltijos g. 1, Mastaičių k., Kauno r.",
      "city": "Kauno r.",
      "lat": 54.818556,
      "lon": 23.858111,
      "source": "circlek-web"
    },
    {
      "network": "Circle K",
      "address": "Raudondvario pl. 107A, Kaunas",
      "city": "Kaunas",
      "lat": 54.908277,
      "lon": 23.864957,
      "source": "circlek-web"
    },
    {
      "network": "Circle K",
      "address": "Sudervės g. 2G, Avižienių k., Vilniaus r.",
      "city": "Vilniaus r.",
      "lat": 54.760518,
      "lon": 25.201747,
      "source": "circlek-web"
    },
    {
      "network": "Circle K",
      "address": "R. Kalantos g. 159, Kaunas",
      "city": "Kaunas",
      "lat": 54.894038,
      "lon": 24.006868,
      "source": "circlek-web"
    },
    {
      "network": "Circle K",
      "address": "Naujoji g. 120, Alytus",
      "city": "Alytus",
      "lat": 54.42474,
      "lon": 24.003441,
      "source": "circlek-web"
    },
    {
      "network": "Circle K",
      "address": "Savanorių pr. 321, Kaunas",
      "city": "Kaunas",
      "lat": 54.920105,
      "lon": 23.952899,
      "source": "circlek-web"
    },
    {
      "network": "Circle K",
      "address": "Veiverių g. 49A, Kaunas",
      "city": "Kaunas",
      "lat": 54.880829,
      "lon": 23.89393,
      "source": "circlek-web"
    },
    {
      "network": "Circle K",
      "address": "Dubijos g. 20A, Šiauliai",
      "city": "Šiauliai",
      "lat": 55.9289,
      "lon": 23.297667,
      "source": "circlek-web"
    },
    {
      "network": "Circle K",
      "address": "Talino g. 2B, Vilnius",
      "city": "Vilnius",
      "lat": 54.713292,
      "lon": 25.209223,
      "source": "circlek-web"
    },
    {
      "network": "Circle K",
      "address": "Pramonės g. 17a, Šiauliai",
      "city": "Šiauliai",
      "lat": 55.909327,
      "lon": 23.319346,
      "source": "circlek-web"
    },
    {
      "network": "Circle K",
      "address": "Sabališkių g. 1F, Elektrėnai",
      "city": "Elektrėnai",
      "lat": 54.78921,
      "lon": 24.676086,
      "source": "circlek-web"
    },
    {
      "network": "Circle K",
      "address": "J. Basanavičiaus g. 108a, Utena",
      "city": "Utena",
      "lat": 55.50521,
      "lon": 25.62127,
      "source": "circlek-web"
    },
    {
      "network": "Circle K",
      "address": "Baltijos Kelio g. 33, Ūtos k., Panevėžio r.",
      "city": "Panevėžio r.",
      "lat": 55.810469,
      "lon": 24.368724,
      "source": "circlek-web"
    },
    {
      "network": "Circle K",
      "address": "Kretingos g. 56, Palanga",
      "city": "Palanga",
      "lat": 55.914821,
      "lon": 21.077936,
      "source": "circlek-web"
    },
    {
      "network": "Circle K",
      "address": "Plento g. 1, Kuršėnai, Šiaulių r.",
      "city": "Šiaulių r.",
      "lat": 55.999324,
      "lon": 22.989745,
      "source": "circlek-web"
    },
    {
      "network": "Circle K",
      "address": "Minijos g. 90, Klaipėda",
      "city": "Klaipėda",
      "lat": 55.687653,
      "lon": 21.145064,
      "source": "circlek-web"
    },
    {
      "network": "Circle K",
      "address": "Taikos pr. 61B, Klaipėda",
      "city": "Klaipėda",
      "lat": 55.69244,
      "lon": 21.153767,
      "source": "circlek-web"
    },
    {
      "network": "Circle K",
      "address": "H. Manto g. 96, Klaipėda",
      "city": "Klaipėda",
      "lat": 55.730408,
      "lon": 21.124619,
      "source": "circlek-web"
    },
    {
      "network": "Circle K",
      "address": "Kauno g. 130, Marijampolė",
      "city": "Marijampolė",
      "lat": 54.576249,
      "lon": 23.371213,
      "source": "circlek-web"
    },
    {
      "network": "Circle K",
      "address": "Rūtų g. 2B, Alytus",
      "city": "Alytus",
      "lat": 54.395068,
      "lon": 24.037857,
      "source": "circlek-web"
    },
    {
      "network": "Circle K",
      "address": "M. K. Čiurlionio g. 113, Druskininkai",
      "city": "Druskininkai",
      "lat": 54.010273,
      "lon": 23.993451,
      "source": "circlek-web"
    },
    {
      "network": "Circle K",
      "address": "J. Basanavičiaus g. 63, Panevėžys",
      "city": "Panevėžys",
      "lat": 55.71768,
      "lon": 24.371095,
      "source": "circlek-web"
    },
    {
      "network": "Circle K",
      "address": "Parko g. 7A, Panevėžys",
      "city": "Panevėžys",
      "lat": 55.731853,
      "lon": 24.342399,
      "source": "circlek-web"
    },
    {
      "network": "Circle K",
      "address": "Jono Dailidės g. 10, Marijampolė",
      "city": "Marijampolė",
      "lat": 54.557125,
      "lon": 23.354007,
      "source": "circlek-web"
    },
    {
      "network": "Circle K",
      "address": "J. Basanavičiaus g. 40a, Kėdainiai",
      "city": "Kėdainiai",
      "lat": 55.286587,
      "lon": 23.972302,
      "source": "circlek-web"
    },
    {
      "network": "Circle K",
      "address": "Ežero g. 7, Kurėnų k., Ukmergės r.",
      "city": "Ukmergės r.",
      "lat": 55.312144,
      "lon": 24.786476,
      "source": "circlek-web"
    },
    {
      "network": "Circle K",
      "address": "Luokės g. 70, Telšiai",
      "city": "Telšiai",
      "lat": 55.977144,
      "lon": 22.265375,
      "source": "circlek-web"
    },
    {
      "network": "Circle K",
      "address": "Cintjoniškių g. 15, Šilutė",
      "city": "Šilutė",
      "lat": 55.350235,
      "lon": 21.47432,
      "source": "circlek-web"
    },
    {
      "network": "Circle K",
      "address": "Savanorių g. 5, Varėna",
      "city": "Varėna",
      "lat": 54.210789,
      "lon": 24.577762,
      "source": "circlek-web"
    },
    {
      "network": "Circle K",
      "address": "Žemaitijos g. 57, Mažeikiai",
      "city": "Mažeikiai",
      "lat": 56.302373,
      "lon": 22.345047,
      "source": "circlek-web"
    },
    {
      "network": "Circle K",
      "address": "Sidabros g. 2A, Satkūnų k., Joniškio r.",
      "city": "Joniškio r.",
      "lat": 56.258582,
      "lon": 23.621817,
      "source": "circlek-web"
    },
    {
      "network": "Circle K",
      "address": "Respublikos g. 111A, Rokiškis",
      "city": "Rokiškis",
      "lat": 55.95232,
      "lon": 25.589617,
      "source": "circlek-web"
    },
    {
      "network": "Circle K",
      "address": "Vasario 16-osios g. 33, Jonava",
      "city": "Jonava",
      "lat": 55.07057,
      "lon": 24.263506,
      "source": "circlek-web"
    },
    {
      "network": "Circle K",
      "address": "Geležinio Vilko g. 39, Vilnius",
      "city": "Vilnius",
      "lat": 54.702357,
      "lon": 25.264761,
      "source": "circlek-web"
    },
    {
      "network": "Circle K",
      "address": "Klaipėdos g. 155, Kretinga",
      "city": "Kretinga",
      "lat": 55.863594,
      "lon": 21.217201,
      "source": "circlek-web"
    },
    {
      "network": "Circle K",
      "address": "Prūsų g. 26 A, Vilnius",
      "city": "Vilnius",
      "lat": 54.658659,
      "lon": 25.266347,
      "source": "circlek-web"
    },
    {
      "network": "Circle K",
      "address": "Gedimino g. 42B, Radviliškis",
      "city": "Radviliškis",
      "lat": 55.811565,
      "lon": 23.550058,
      "source": "circlek-web"
    },
    {
      "network": "Circle K",
      "address": "Gedimino g. 47, Tauragė",
      "city": "Tauragė",
      "lat": 55.24827,
      "lon": 22.302877,
      "source": "circlek-web"
    },
    {
      "network": "Circle K",
      "address": "Panevėžio aplinkl. 20, Šilagalio k., Panevėžio r.",
      "city": "Panevėžio r.",
      "lat": 55.67337,
      "lon": 24.33583,
      "source": "circlek-web"
    },
    {
      "network": "Circle K",
      "address": "Vakarinis aplinkkelis 10, Kaunas",
      "city": "Kaunas",
      "lat": 54.93565,
      "lon": 23.870417,
      "source": "circlek-web"
    },
    {
      "network": "Circle K",
      "address": "Žemaičių pl. 19, Kaunas",
      "city": "Kaunas",
      "lat": 54.92526,
      "lon": 23.890491,
      "source": "circlek-web"
    },
    {
      "network": "Circle K",
      "address": "Dvaro g. 3, Košių II k., Šilalės r.",
      "city": "Šilalės r.",
      "lat": 55.48419,
      "lon": 22.587226,
      "source": "circlek-web"
    },
    {
      "network": "Circle K",
      "address": "Vilniaus pl. 21, Jakų k., Sendvario sen., Klaipėdos r.",
      "city": "Klaipėdos r.",
      "lat": 55.7114,
      "lon": 21.26305,
      "source": "circlek-web"
    },
    {
      "network": "Circle K",
      "address": "Geležinio Vilko g. 24, Vilnius",
      "city": "Vilnius",
      "lat": 54.75156,
      "lon": 25.26653,
      "source": "circlek-web"
    },
    {
      "network": "Circle K",
      "address": "Taikos pr. 52A, Kaunas",
      "city": "Kaunas",
      "lat": 54.912106,
      "lon": 23.956737,
      "source": "circlek-web"
    },
    {
      "network": "Circle K",
      "address": "Kilučių g. 93, Biržai",
      "city": "Biržai",
      "lat": 56.194803,
      "lon": 24.771856,
      "source": "circlek-web"
    },
    {
      "network": "Circle K",
      "address": "Briedžių takas 6B, Kaunas",
      "city": "Kaunas",
      "lat": 54.93601,
      "lon": 23.96597,
      "source": "circlek-web"
    },
    {
      "network": "Circle K",
      "address": "Islandijos pl. 61C, Kaunas",
      "city": "Kaunas",
      "lat": 54.93307,
      "lon": 23.96542,
      "source": "circlek-web"
    },
    {
      "network": "Circle K",
      "address": "Karaliaus Mindaugo pr. 34A, Kaunas",
      "city": "Kaunas",
      "lat": 54.894043,
      "lon": 23.914109,
      "source": "circlek-web"
    },
    {
      "network": "Circle K",
      "address": "Didžiulio g. 5, Dėdeliškių k., Trakų r.",
      "city": "Trakų r.",
      "lat": 54.686221,
      "lon": 25.053965,
      "source": "circlek-web"
    },
    {
      "network": "Circle K",
      "address": "J. Basanavičiaus g. 3, Utena",
      "city": "Utena",
      "lat": 55.495936,
      "lon": 25.582789,
      "source": "circlek-web"
    },
    {
      "network": "Circle K",
      "address": "Nekrūnų k. 1, Lazdijų r.",
      "city": "Lazdijų r.",
      "lat": 54.226753,
      "lon": 23.524997,
      "source": "circlek-web"
    },
    {
      "network": "Circle K",
      "address": "Vilkaviškio g. 10, Serdokų k., Vilkaviškio r.",
      "city": "Vilkaviškio r.",
      "lat": 54.636443,
      "lon": 23.074778,
      "source": "circlek-web"
    },
    {
      "network": "Circle K",
      "address": "Taikos pr. 112A, Klaipėda",
      "city": "Klaipėda",
      "lat": 55.666609,
      "lon": 21.172719,
      "source": "circlek-web"
    },
    {
      "network": "Circle K",
      "address": "Vilniaus pl. 1A, Klaipėda",
      "city": "Klaipėda",
      "lat": 55.692944,
      "lon": 21.179734,
      "source": "circlek-web"
    },
    {
      "network": "Circle K",
      "address": "Pikelių k. 1, Raseinių r.",
      "city": "Raseinių r.",
      "lat": 55.4615,
      "lon": 22.693284,
      "source": "circlek-web"
    },
    {
      "network": "Circle K",
      "address": "Europos g. 13a, Salaperaugio k",
      "city": "Salaperaugio k",
      "lat": 54.322289,
      "lon": 23.141419,
      "source": "circlek-web"
    },
    {
      "network": "Circle K",
      "address": "Muitinės g. 5B, Brazavo k.",
      "city": "Brazavo k.",
      "lat": 54.368225,
      "lon": 23.183729,
      "source": "circlek-web"
    },
    {
      "network": "Circle K",
      "address": "Vilniaus g. 62, Šiauliai",
      "city": "Šiauliai",
      "lat": 55.924786,
      "lon": 23.334113,
      "source": "circlek-web"
    },
    {
      "network": "Circle K",
      "address": "R. Kalantos g. 68, Kaunas",
      "city": "Kaunas",
      "lat": 54.893093,
      "lon": 23.995791,
      "source": "circlek-web"
    },
    {
      "network": "Circle K",
      "address": "Varnių g. 46, Kaunas",
      "city": "Kaunas",
      "lat": 54.91451,
      "lon": 23.900006,
      "source": "circlek-web"
    },
    {
      "network": "Circle K",
      "address": "Oslo g. 12, Vilnius",
      "city": "Vilnius",
      "lat": 54.670986,
      "lon": 25.192105,
      "source": "circlek-web"
    },
    {
      "network": "Circle K",
      "address": "Dariaus ir Girėno g. 83A, Tauragė",
      "city": "Tauragė",
      "lat": 55.26716,
      "lon": 22.310066,
      "source": "circlek-web"
    },
    {
      "network": "Circle K",
      "address": "Islandijos pl. 32, Kaunas",
      "city": "Kaunas",
      "lat": 54.938358,
      "lon": 23.898278,
      "source": "circlek-web"
    },
    {
      "network": "Circle K",
      "address": "Savanorių pr. 118, Vilnius",
      "city": "Vilnius",
      "lat": 54.661742,
      "lon": 25.235338,
      "source": "circlek-web"
    },
    {
      "network": "Circle K",
      "address": "P. Žadeikos g. 1a, Vilnius",
      "city": "Vilnius",
      "lat": 54.73049,
      "lon": 25.239025,
      "source": "circlek-web"
    },
    {
      "network": "Circle K",
      "address": "Savanorių pr. 119A, Vilnius",
      "city": "Vilnius",
      "lat": 54.662854,
      "lon": 25.234954,
      "source": "circlek-web"
    },
    {
      "network": "Circle K",
      "address": "Kareivių g. 3, Vilnius",
      "city": "Vilnius",
      "lat": 54.71551,
      "lon": 25.290766,
      "source": "circlek-web"
    },
    {
      "network": "Circle K",
      "address": "Geležinio Vilko g. 4, Vilnius",
      "city": "Vilnius",
      "lat": 54.702899,
      "lon": 25.263932,
      "source": "circlek-web"
    },
    {
      "network": "Circle K",
      "address": "Gariūnų g. 45, Vilnius",
      "city": "Vilnius",
      "lat": 54.658767,
      "lon": 25.16093,
      "source": "circlek-web"
    },
    {
      "network": "Circle K",
      "address": "Savanorių pr. 404B, Kaunas",
      "city": "Kaunas",
      "lat": 54.92831,
      "lon": 23.973625,
      "source": "circlek-web"
    },
    {
      "network": "Circle K",
      "address": "Tvirtovės alėja 33a, Kaunas",
      "city": "Kaunas",
      "lat": 54.91317,
      "lon": 23.926177,
      "source": "circlek-web"
    },
    {
      "network": "Circle K",
      "address": "Sukilėlių pr. 120, Kaunas",
      "city": "Kaunas",
      "lat": 54.928513,
      "lon": 23.928984,
      "source": "circlek-web"
    },
    {
      "network": "Circle K",
      "address": "K. Baršausko g. 57, Kaunas",
      "city": "Kaunas",
      "lat": 54.899055,
      "lon": 23.959933,
      "source": "circlek-web"
    },
    {
      "network": "Circle K",
      "address": "Jonavos g. 38, Kaunas",
      "city": "Kaunas",
      "lat": 54.901627,
      "lon": 23.894905,
      "source": "circlek-web"
    },
    {
      "network": "Circle K",
      "address": "Tilžės g. 25, Šiauliai",
      "city": "Šiauliai",
      "lat": 55.91276,
      "lon": 23.273898,
      "source": "circlek-web"
    },
    {
      "network": "Circle K",
      "address": "Tilžės g. 56A, Klaipėda",
      "city": "Klaipėda",
      "lat": 55.704329,
      "lon": 21.160808,
      "source": "circlek-web"
    },
    {
      "network": "Circle K",
      "address": "Jūrininkų pr. 31, Klaipėda",
      "city": "Klaipėda",
      "lat": 55.656796,
      "lon": 21.182391,
      "source": "circlek-web"
    },
    {
      "network": "Circle K",
      "address": "Sausio 15-osios g. 2, Klaipėda",
      "city": "Klaipėda",
      "lat": 55.702286,
      "lon": 21.138001,
      "source": "circlek-web"
    },
    {
      "network": "Circle K",
      "address": "Klaipėdos g. 92A, Panevėžys",
      "city": "Panevėžys",
      "lat": 55.728796,
      "lon": 24.339034,
      "source": "circlek-web"
    },
    {
      "network": "Circle K",
      "address": "Pramogų g. 4, Truikių k., Plungės r.",
      "city": "Plungės r.",
      "lat": 55.938799,
      "lon": 21.879922,
      "source": "circlek-web"
    },
    {
      "network": "Circle K",
      "address": "Kauno g. 68, Girėnų k., Šakių r.",
      "city": "Šakių r.",
      "lat": 54.953047,
      "lon": 23.083773,
      "source": "circlek-web"
    },
    {
      "network": "Circle K",
      "address": "Kikonių g. 10, Aleksandrijos k., Kupiškio r.",
      "city": "Kupiškio r.",
      "lat": 55.824587,
      "lon": 25.001069,
      "source": "circlek-web"
    },
    {
      "network": "Circle K",
      "address": "J. Basanavičiaus g. 103, Kėdainiai",
      "city": "Kėdainiai",
      "lat": 55.274248,
      "lon": 23.944962,
      "source": "circlek-web"
    },
    {
      "network": "Circle K",
      "address": "Plungės g. 32, Rietavas",
      "city": "Rietavas",
      "lat": 55.734882,
      "lon": 21.923654,
      "source": "circlek-web"
    },
    {
      "network": "Circle K",
      "address": "Pumpučių g. 25, Kavarskas",
      "city": "Kavarskas",
      "lat": 55.424342,
      "lon": 24.920568,
      "source": "circlek-web"
    },
    {
      "network": "Circle K",
      "address": "Muitinės g. 34A, Jurbarkas",
      "city": "Jurbarkas",
      "lat": 55.0768,
      "lon": 22.75204,
      "source": "circlek-web"
    },
    {
      "network": "Circle K",
      "address": "Molėtų g. 15, Didžiosios Riešės k., Vilniaus r.",
      "city": "Vilniaus r.",
      "lat": 54.780709,
      "lon": 25.273898,
      "source": "circlek-web"
    },
    {
      "network": "Viada",
      "address": "Lazdijai, Turistų g. 32",
      "city": "",
      "lat": 54.228639,
      "lon": 23.528411,
      "source": "viada-web"
    },
    {
      "network": "Viada",
      "address": "Rokiškis, Panevėžio g. 5",
      "city": "",
      "lat": 55.944519,
      "lon": 25.585662,
      "source": "viada-web"
    },
    {
      "network": "Viada",
      "address": "Vilnius, Vilkpėdės g. 2",
      "city": "",
      "lat": 54.665036,
      "lon": 25.246407,
      "source": "viada-web"
    },
    {
      "network": "Viada",
      "address": "Kelmės r., Kuršukų k., Plento g. 1",
      "city": "",
      "lat": 55.618239,
      "lon": 22.901322,
      "source": "viada-web"
    },
    {
      "network": "Viada",
      "address": "Vilnius, Ateities g. 17B",
      "city": "",
      "lat": 54.735655,
      "lon": 25.258598,
      "source": "viada-web"
    },
    {
      "network": "Viada",
      "address": "Vilnius, Dariaus ir Girėno g. 30A",
      "city": "",
      "lat": 54.652826,
      "lon": 25.272062,
      "source": "viada-web"
    },
    {
      "network": "Viada",
      "address": "Kėdainių r., Dotnuva, Tilto g. 2a",
      "city": "",
      "lat": 55.374389,
      "lon": 23.879683,
      "source": "viada-web"
    },
    {
      "network": "Viada",
      "address": "Vilnius, Kirtimų g. 29",
      "city": "",
      "lat": 54.633263,
      "lon": 25.150814,
      "source": "viada-web"
    },
    {
      "network": "Viada",
      "address": "Vilnius, Laisvės pr. 8",
      "city": "",
      "lat": 54.674293,
      "lon": 25.222756,
      "source": "viada-web"
    },
    {
      "network": "Viada",
      "address": "Vilnius, Naugarduko g. 74",
      "city": "",
      "lat": 54.671095,
      "lon": 25.262262,
      "source": "viada-web"
    },
    {
      "network": "Viada",
      "address": "Vilnius, Nemenčinės pl. 5",
      "city": "",
      "lat": 54.726381,
      "lon": 25.326531,
      "source": "viada-web"
    },
    {
      "network": "Viada",
      "address": "Vilnius, Olandų g. 57",
      "city": "",
      "lat": 54.681942,
      "lon": 25.314018,
      "source": "viada-web"
    },
    {
      "network": "Viada",
      "address": "Vilnius, Ozo g. 12",
      "city": "",
      "lat": 54.713628,
      "lon": 25.277135,
      "source": "viada-web"
    },
    {
      "network": "Viada",
      "address": "Vilnius, Pilaitės pr. 28",
      "city": "",
      "lat": 54.701431,
      "lon": 25.203618,
      "source": "viada-web"
    },
    {
      "network": "Viada",
      "address": "Trakų r., Aukštųjų Semeniukų k., Logistikos g. 9",
      "city": "",
      "lat": 54.7018,
      "lon": 25.00856,
      "source": "viada-web"
    },
    {
      "network": "Viada",
      "address": "Vilnius, Pilaitės pr. 13",
      "city": "",
      "lat": 54.702992,
      "lon": 25.204186,
      "source": "viada-web"
    },
    {
      "network": "Viada",
      "address": "Ukmergės r., Šventupė, Beržų g. 13",
      "city": "",
      "lat": 55.314052,
      "lon": 24.86977,
      "source": "viada-web"
    },
    {
      "network": "Viada",
      "address": "Vilnius, Saltoniškių g. 12",
      "city": "",
      "lat": 54.699175,
      "lon": 25.26008,
      "source": "viada-web"
    },
    {
      "network": "Viada",
      "address": "Vilnius, Sodų g. 22",
      "city": "",
      "lat": 54.669526,
      "lon": 25.27915,
      "source": "viada-web"
    },
    {
      "network": "Viada",
      "address": "Kaunas, Ateities pl. 37A",
      "city": "",
      "lat": 54.918202,
      "lon": 24.039726,
      "source": "viada-web"
    },
    {
      "network": "Viada",
      "address": "Kauno r., Giraitės k., Automagistralės g. 4",
      "city": "",
      "lat": 54.959162,
      "lon": 23.864342,
      "source": "viada-web"
    },
    {
      "network": "Viada",
      "address": "Kaunas, Islandijos pl. 61A",
      "city": "",
      "lat": 54.933537,
      "lon": 23.968512,
      "source": "viada-web"
    },
    {
      "network": "Viada",
      "address": "Kaunas, K. Baršausko g. 64",
      "city": "",
      "lat": 54.897772,
      "lon": 23.958195,
      "source": "viada-web"
    },
    {
      "network": "Viada",
      "address": "Kaunas, Karaliaus Mindaugo pr. 54",
      "city": "",
      "lat": 54.88737,
      "lon": 23.921353,
      "source": "viada-web"
    },
    {
      "network": "Viada",
      "address": "Kauno r., Margavos k.",
      "city": "",
      "lat": 54.958815,
      "lon": 24.039164,
      "source": "viada-web"
    },
    {
      "network": "Viada",
      "address": "Mažeikiai, Žemaitijos g. 75",
      "city": "",
      "lat": 56.300252,
      "lon": 22.360673,
      "source": "viada-web"
    },
    {
      "network": "Viada",
      "address": "Kaunas, P. Lukšio g. 66A",
      "city": "",
      "lat": 54.9249,
      "lon": 23.942603,
      "source": "viada-web"
    },
    {
      "network": "Viada",
      "address": "Kaunas, Raudondvario pl. 288",
      "city": "",
      "lat": 54.921398,
      "lon": 23.810331,
      "source": "viada-web"
    },
    {
      "network": "Viada",
      "address": "Kaunas, Statybininkų g. 3A",
      "city": "",
      "lat": 54.919993,
      "lon": 23.948992,
      "source": "viada-web"
    },
    {
      "network": "Viada",
      "address": "Elektrėnai, Dubijos g. 36",
      "city": "",
      "lat": 54.786851,
      "lon": 24.713782,
      "source": "viada-web"
    },
    {
      "network": "Viada",
      "address": "Kaunas, T. Masiulio g. 22B",
      "city": "",
      "lat": 54.880985,
      "lon": 24.009786,
      "source": "viada-web"
    },
    {
      "network": "Viada",
      "address": "Kaunas, Veiverių g. 124B",
      "city": "",
      "lat": 54.883351,
      "lon": 23.89362,
      "source": "viada-web"
    },
    {
      "network": "Viada",
      "address": "Kauno raj., Kampiškių k., Baltijos g. 41",
      "city": "",
      "lat": 54.842387,
      "lon": 23.849624,
      "source": "viada-web"
    },
    {
      "network": "Viada",
      "address": "Kauno r., Kumpių k., Verslo g. 13A",
      "city": "",
      "lat": 54.95897,
      "lon": 23.866724,
      "source": "viada-web"
    },
    {
      "network": "Viada",
      "address": "Klaipėda, Liepojos g. 242",
      "city": "",
      "lat": 55.753699,
      "lon": 21.131399,
      "source": "viada-web"
    },
    {
      "network": "Viada",
      "address": "Klaipėda, Priestočio g. 28",
      "city": "",
      "lat": 55.719252,
      "lon": 21.141439,
      "source": "viada-web"
    },
    {
      "network": "Viada",
      "address": "Klaipėdos r., Sudmantų k., Vilniaus pl. 6",
      "city": "",
      "lat": 55.704435,
      "lon": 21.221757,
      "source": "viada-web"
    },
    {
      "network": "Viada",
      "address": "Klaipėda, Taikos pr. 70A",
      "city": "",
      "lat": 55.68327,
      "lon": 21.160516,
      "source": "viada-web"
    },
    {
      "network": "Viada",
      "address": "Klaipėda, Šilutės pl. 52",
      "city": "",
      "lat": 55.681852,
      "lon": 21.185393,
      "source": "viada-web"
    },
    {
      "network": "Viada",
      "address": "Panevėžys, J. Janonio g. 28A",
      "city": "",
      "lat": 55.738781,
      "lon": 24.310191,
      "source": "viada-web"
    },
    {
      "network": "Viada",
      "address": "Panevėžys, Navadolio g. 31",
      "city": "",
      "lat": 55.71465,
      "lon": 24.335082,
      "source": "viada-web"
    },
    {
      "network": "Viada",
      "address": "Panevėžys, Ramygalos g. 186G",
      "city": "",
      "lat": 55.709283,
      "lon": 24.373641,
      "source": "viada-web"
    },
    {
      "network": "Viada",
      "address": "Panevėžys, Venslaviškio g. 16",
      "city": "",
      "lat": 55.736987,
      "lon": 24.387165,
      "source": "viada-web"
    },
    {
      "network": "Viada",
      "address": "Šiauliai, J. Basanavičiaus g. 122A",
      "city": "",
      "lat": 55.95475,
      "lon": 23.315799,
      "source": "viada-web"
    },
    {
      "network": "Viada",
      "address": "Šiauliai, Dubijos g. 1C",
      "city": "",
      "lat": 55.926413,
      "lon": 23.307517,
      "source": "viada-web"
    },
    {
      "network": "Viada",
      "address": "Šiauliai, Gegužių g. 26",
      "city": "",
      "lat": 55.905387,
      "lon": 23.260267,
      "source": "viada-web"
    },
    {
      "network": "Viada",
      "address": "Šiauliai, Tilžės g. 274",
      "city": "",
      "lat": 55.944117,
      "lon": 23.33112,
      "source": "viada-web"
    },
    {
      "network": "Viada",
      "address": "Kupiškio r., Kerelių k. 1A",
      "city": "",
      "lat": 55.856593,
      "lon": 25.173694,
      "source": "viada-web"
    },
    {
      "network": "Viada",
      "address": "Šiauliai, Užmiesčio g. 2",
      "city": "",
      "lat": 55.922716,
      "lon": 23.357888,
      "source": "viada-web"
    },
    {
      "network": "Viada",
      "address": "Marijampolė, Geležinkelio g. 5",
      "city": "",
      "lat": 54.554417,
      "lon": 23.362278,
      "source": "viada-web"
    },
    {
      "network": "Viada",
      "address": "Varėnos r., Valkininkai, Vilniaus g. 6",
      "city": "",
      "lat": 54.364881,
      "lon": 24.837355,
      "source": "viada-web"
    },
    {
      "network": "Viada",
      "address": "Marijampolė, J. Ambrazevičiaus g. 2",
      "city": "",
      "lat": 54.567798,
      "lon": 23.33954,
      "source": "viada-web"
    },
    {
      "network": "Viada",
      "address": "Panevėžio r., Ramygala, Vienkiemio g. 1B",
      "city": "",
      "lat": 55.52123,
      "lon": 24.312942,
      "source": "viada-web"
    },
    {
      "network": "Viada",
      "address": "Kazlų Rūdos r., Ąžuolų Būdos k., Marijampolės g. 53",
      "city": "",
      "lat": 54.698178,
      "lon": 23.517555,
      "source": "viada-web"
    },
    {
      "network": "Viada",
      "address": "Alytus, Naujoji g. 27",
      "city": "",
      "lat": 54.413986,
      "lon": 24.010062,
      "source": "viada-web"
    },
    {
      "network": "Viada",
      "address": "Alytus, Ulonų g. 33B",
      "city": "",
      "lat": 54.385069,
      "lon": 24.050295,
      "source": "viada-web"
    },
    {
      "network": "Viada",
      "address": "Biržai, Parodos g. 2",
      "city": "",
      "lat": 56.201428,
      "lon": 24.748893,
      "source": "viada-web"
    },
    {
      "network": "Viada",
      "address": "Kaunas, Marvelės g. 132",
      "city": "",
      "lat": 54.903891,
      "lon": 23.835379,
      "source": "viada-web"
    },
    {
      "network": "Viada",
      "address": "Elektrėnai, Elektrinės g. 6",
      "city": "",
      "lat": 54.784677,
      "lon": 24.654136,
      "source": "viada-web"
    },
    {
      "network": "Viada",
      "address": "Gargždai, Vilniaus pl. 65",
      "city": "",
      "lat": 55.732312,
      "lon": 21.376033,
      "source": "viada-web"
    },
    {
      "network": "Viada",
      "address": "Vilniaus m. sav., Grigiškės, Kovo 11-osios g. 75",
      "city": "",
      "lat": 54.669271,
      "lon": 25.104758,
      "source": "viada-web"
    },
    {
      "network": "Viada",
      "address": "Ignalina, Turistų g. 28A",
      "city": "",
      "lat": 55.338921,
      "lon": 26.145658,
      "source": "viada-web"
    },
    {
      "network": "Viada",
      "address": "Jonava, Darbininkų g. 4D",
      "city": "",
      "lat": 55.092675,
      "lon": 24.281952,
      "source": "viada-web"
    },
    {
      "network": "Viada",
      "address": "Joniškis, Vilniaus g. 51",
      "city": "",
      "lat": 56.224483,
      "lon": 23.600756,
      "source": "viada-web"
    },
    {
      "network": "Viada",
      "address": "Kaišiadorys, Gedimino g. 135",
      "city": "",
      "lat": 54.855237,
      "lon": 24.441801,
      "source": "viada-web"
    },
    {
      "network": "Viada",
      "address": "Kėdainių r., Gudžiūnų mst., Baisogalos g. 5",
      "city": "",
      "lat": 55.518623,
      "lon": 23.773686,
      "source": "viada-web"
    },
    {
      "network": "Viada",
      "address": "Kalvarija, Dariaus ir Girėno g. 81",
      "city": "",
      "lat": 54.424482,
      "lon": 23.232087,
      "source": "viada-web"
    },
    {
      "network": "Viada",
      "address": "Tauragė, Dariaus ir Girėno g. 138A",
      "city": "",
      "lat": 55.266503,
      "lon": 22.311473,
      "source": "viada-web"
    },
    {
      "network": "Viada",
      "address": "Kupiškis, Pergalės g. 15",
      "city": "",
      "lat": 55.844616,
      "lon": 24.979101,
      "source": "viada-web"
    },
    {
      "network": "Viada",
      "address": "Panevėžio r., Tičkūnų k., Tičkūnų g. 31",
      "city": "",
      "lat": 55.778825,
      "lon": 24.364255,
      "source": "viada-web"
    },
    {
      "network": "Viada",
      "address": "Panevėžys, Senamiesčio g. 116A",
      "city": "",
      "lat": 55.748535,
      "lon": 24.393312,
      "source": "viada-web"
    },
    {
      "network": "Viada",
      "address": "Panevėžys, Pušaloto g. 193A",
      "city": "",
      "lat": 55.75316,
      "lon": 24.312296,
      "source": "viada-web"
    },
    {
      "network": "Viada",
      "address": "Kalvarija, Pelucmurgių k., Muitinės g. 35",
      "city": "",
      "lat": 54.3392,
      "lon": 23.163159,
      "source": "viada-web"
    },
    {
      "network": "Viada",
      "address": "Šalčininkų r., Jašiūnai, Lydos g. 13",
      "city": "",
      "lat": 54.439646,
      "lon": 25.327296,
      "source": "viada-web"
    },
    {
      "network": "Viada",
      "address": "Zarasų r., Juodalaukių k.",
      "city": "",
      "lat": 55.717891,
      "lon": 26.21375,
      "source": "viada-web"
    },
    {
      "network": "Viada",
      "address": "Anykščiai, A. Vienuolio g. 34",
      "city": "",
      "lat": 55.521814,
      "lon": 25.086034,
      "source": "viada-web"
    },
    {
      "network": "Viada",
      "address": "Kretinga, Kretingsodžio k.",
      "city": "",
      "lat": 55.896081,
      "lon": 21.220954,
      "source": "viada-web"
    },
    {
      "network": "Viada",
      "address": "Rokiškis, Žemaitės g. 2C",
      "city": "",
      "lat": 55.934343,
      "lon": 25.585701,
      "source": "viada-web"
    },
    {
      "network": "Viada",
      "address": "Kretingalė, Klaipėdos g. 1A",
      "city": "",
      "lat": 55.827582,
      "lon": 21.185074,
      "source": "viada-web"
    },
    {
      "network": "Viada",
      "address": "Kuršėnai, Vilniaus g. 38A",
      "city": "",
      "lat": 56.000001,
      "lon": 22.947693,
      "source": "viada-web"
    },
    {
      "network": "Viada",
      "address": "Mažeikiai, Montuotojų g. 2A",
      "city": "",
      "lat": 56.315942,
      "lon": 22.302418,
      "source": "viada-web"
    },
    {
      "network": "Viada",
      "address": "Molėtų r., Gojaus k., Utenos g. 16",
      "city": "",
      "lat": 55.214689,
      "lon": 25.437878,
      "source": "viada-web"
    },
    {
      "network": "Viada",
      "address": "Pabradė, Vilniaus g. 116B",
      "city": "",
      "lat": 54.975126,
      "lon": 25.745001,
      "source": "viada-web"
    },
    {
      "network": "Viada",
      "address": "Pakruojis, Vytauto Didžiojo g. 98",
      "city": "",
      "lat": 55.98042,
      "lon": 23.857616,
      "source": "viada-web"
    },
    {
      "network": "Viada",
      "address": "Pasvalio r., Brazdigalos k. 1",
      "city": "",
      "lat": 56.042226,
      "lon": 24.378448,
      "source": "viada-web"
    },
    {
      "network": "Viada",
      "address": "Pasvalys, Vilniaus g. 50",
      "city": "",
      "lat": 56.055978,
      "lon": 24.407271,
      "source": "viada-web"
    },
    {
      "network": "Viada",
      "address": "Plungė, J. Tumo-Vaižganto g. 102",
      "city": "",
      "lat": 55.902952,
      "lon": 21.830134,
      "source": "viada-web"
    },
    {
      "network": "Viada",
      "address": "Prienai, Mačiūnų k., Kauno pl. 40",
      "city": "",
      "lat": 54.659001,
      "lon": 23.947111,
      "source": "viada-web"
    },
    {
      "network": "Viada",
      "address": "Raseinių r., Viduklės sen., Vejukų k. 5",
      "city": "",
      "lat": 55.385937,
      "lon": 22.901688,
      "source": "viada-web"
    },
    {
      "network": "Viada",
      "address": "Šiaulių r., Draugystės 2 , Kužiai",
      "city": "",
      "lat": 55.979081,
      "lon": 23.136134,
      "source": "viada-web"
    },
    {
      "network": "Viada",
      "address": "Šilutė, Tilžės g. 59",
      "city": "",
      "lat": 55.34274,
      "lon": 21.496553,
      "source": "viada-web"
    },
    {
      "network": "Viada",
      "address": "Vievis, Kauno g. 55A",
      "city": "",
      "lat": 54.775194,
      "lon": 24.810293,
      "source": "viada-web"
    },
    {
      "network": "Viada",
      "address": "Skuodas, Vilniaus g. 50",
      "city": "",
      "lat": 56.270144,
      "lon": 21.547151,
      "source": "viada-web"
    },
    {
      "network": "Viada",
      "address": "Tauragė, Pramonės g. 1",
      "city": "",
      "lat": 55.240879,
      "lon": 22.305234,
      "source": "viada-web"
    },
    {
      "network": "Viada",
      "address": "Telšiai, Pramonės g. 2",
      "city": "",
      "lat": 55.993413,
      "lon": 22.240148,
      "source": "viada-web"
    },
    {
      "network": "Viada",
      "address": "Ukmergės r., Dukstynos k., Vytauto g. 131",
      "city": "",
      "lat": 55.269227,
      "lon": 24.810176,
      "source": "viada-web"
    },
    {
      "network": "Viada",
      "address": "Alytaus r., Daugų k., Neveiglo g. 25",
      "city": "",
      "lat": 54.366827,
      "lon": 24.337458,
      "source": "viada-web"
    },
    {
      "network": "Viada",
      "address": "Ukmergė, Žiedo g. 15",
      "city": "",
      "lat": 55.245907,
      "lon": 24.743056,
      "source": "viada-web"
    },
    {
      "network": "Viada",
      "address": "Utena, Gedimino k., Vyturio g. 2",
      "city": "",
      "lat": 55.477844,
      "lon": 25.581493,
      "source": "viada-web"
    },
    {
      "network": "Viada",
      "address": "Vilkaviškis, Vytauto g. 105",
      "city": "",
      "lat": 54.647593,
      "lon": 23.029146,
      "source": "viada-web"
    },
    {
      "network": "Viada",
      "address": "Visaginas, Statybininkų g. 1",
      "city": "",
      "lat": 55.594607,
      "lon": 26.438792,
      "source": "viada-web"
    },
    {
      "network": "Viada",
      "address": "Molėtai, Vilniaus g. 101",
      "city": "",
      "lat": 55.223871,
      "lon": 25.405884,
      "source": "viada-web"
    },
    {
      "network": "Viada",
      "address": "Vilnius, Liepkalnio g. 128A",
      "city": "",
      "lat": 54.647457,
      "lon": 25.304067,
      "source": "viada-web"
    },
    {
      "network": "Viada",
      "address": "Vilniaus r., Avižieniai, Ožiarūčių g. 1A",
      "city": "",
      "lat": 54.76388,
      "lon": 25.19763,
      "source": "viada-web"
    },
    {
      "network": "Viada",
      "address": "Vilnius, Verkių g. 52",
      "city": "",
      "lat": 54.721488,
      "lon": 25.295135,
      "source": "viada-web"
    },
    {
      "network": "Viada",
      "address": "Vilnius, Gariūnų g. 16A",
      "city": "",
      "lat": 54.667155,
      "lon": 25.17435,
      "source": "viada-web"
    },
    {
      "network": "Viada",
      "address": "Vilnius, Justiniškių g. 12",
      "city": "",
      "lat": 54.702535,
      "lon": 25.218837,
      "source": "viada-web"
    },
    {
      "network": "Viada",
      "address": "Vievis, Kauno g. 26",
      "city": "",
      "lat": 54.771212,
      "lon": 24.820776,
      "source": "viada-web"
    },
    {
      "network": "Viada",
      "address": "Šilalės r. sav., Traksėdžio sen., Kuodaičių k.",
      "city": "",
      "lat": 55.568675,
      "lon": 22.1775,
      "source": "viada-web"
    },
    {
      "network": "Viada",
      "address": "Kaunas, Baltijos g. 90B",
      "city": "",
      "lat": 54.917943,
      "lon": 23.873742,
      "source": "viada-web"
    },
    {
      "network": "Viada",
      "address": "Kaunas, Biruliškių pl. 18A",
      "city": "",
      "lat": 54.911393,
      "lon": 24.021123,
      "source": "viada-web"
    },
    {
      "network": "Viada",
      "address": "Kaunas, Didžioji g. 84",
      "city": "",
      "lat": 54.855157,
      "lon": 24.013174,
      "source": "viada-web"
    },
    {
      "network": "Viada",
      "address": "Kaunas, A. Juozapavičiaus pr. 90",
      "city": "",
      "lat": 54.879029,
      "lon": 23.933678,
      "source": "viada-web"
    },
    {
      "network": "Viada",
      "address": "Utena, Pramonės g. 23",
      "city": "",
      "lat": 55.490155,
      "lon": 25.650845,
      "source": "viada-web"
    },
    {
      "network": "Viada",
      "address": "Kaunas, Marijampolės pl. 29",
      "city": "",
      "lat": 54.849536,
      "lon": 23.966766,
      "source": "viada-web"
    },
    {
      "network": "Viada",
      "address": "Kaunas, Miežėnų g. 18",
      "city": "",
      "lat": 54.917558,
      "lon": 23.863454,
      "source": "viada-web"
    },
    {
      "network": "Viada",
      "address": "Švenčionių r., Kaltanėnai, Utenos g. 1",
      "city": "",
      "lat": 55.255178,
      "lon": 25.990643,
      "source": "viada-web"
    },
    {
      "network": "Viada",
      "address": "Kaunas, Ateities pl. 105",
      "city": "",
      "lat": 54.927483,
      "lon": 24.043117,
      "source": "viada-web"
    },
    {
      "network": "Viada",
      "address": "Kaunas, Pramonės pr. 44",
      "city": "",
      "lat": 54.927182,
      "lon": 23.974693,
      "source": "viada-web"
    },
    {
      "network": "Viada",
      "address": "Kaunas, Veiverių g. 117",
      "city": "",
      "lat": 54.884491,
      "lon": 23.89482,
      "source": "viada-web"
    },
    {
      "network": "Viada",
      "address": "Kauno r., Zapyškis, Vytauto g. 20A",
      "city": "",
      "lat": 54.927013,
      "lon": 23.662037,
      "source": "viada-web"
    },
    {
      "network": "Viada",
      "address": "Klaipėda, Nemuno g. 139",
      "city": "",
      "lat": 55.675209,
      "lon": 21.153005,
      "source": "viada-web"
    },
    {
      "network": "Viada",
      "address": "Kretinga, Vytauto g. 163",
      "city": "",
      "lat": 55.890543,
      "lon": 21.278423,
      "source": "viada-web"
    },
    {
      "network": "Viada",
      "address": "Šiaulių r., Aukštelkės k. Ilgoji g. 1",
      "city": "",
      "lat": 55.881956,
      "lon": 23.205613,
      "source": "viada-web"
    },
    {
      "network": "Viada",
      "address": "Utena, Metalo g. 8",
      "city": "",
      "lat": 55.497257,
      "lon": 25.630563,
      "source": "viada-web"
    },
    {
      "network": "Viada",
      "address": "Švenčionys, Vilniaus g. 50A",
      "city": "",
      "lat": 55.125425,
      "lon": 26.145594,
      "source": "viada-web"
    },
    {
      "network": "Viada",
      "address": "Švenčionių r., Švenčionėliai, Žemutinė g. 51A",
      "city": "",
      "lat": 55.16851,
      "lon": 26.015011,
      "source": "viada-web"
    },
    {
      "network": "Viada",
      "address": "Širvintos, Plento g. 4",
      "city": "",
      "lat": 55.045727,
      "lon": 24.942613,
      "source": "viada-web"
    },
    {
      "network": "Viada",
      "address": "Anykščiai, Piliakalnio g. 9",
      "city": "",
      "lat": 55.541219,
      "lon": 25.134763,
      "source": "viada-web"
    },
    {
      "network": "Viada",
      "address": "Visaginas, Taikos pr. 23B",
      "city": "",
      "lat": 55.594795,
      "lon": 26.456705,
      "source": "viada-web"
    },
    {
      "network": "Viada",
      "address": "Prienų r., Grigaliūnų k. 11",
      "city": "",
      "lat": 54.713978,
      "lon": 23.64982,
      "source": "viada-web"
    },
    {
      "network": "Viada",
      "address": "Šiaulių r., Ginkūnų k., Aušros g. 26",
      "city": "",
      "lat": 55.956317,
      "lon": 23.342812,
      "source": "viada-web"
    },
    {
      "network": "Viada",
      "address": "Panevėžio r., Krekenava, Tilto g. 35",
      "city": "",
      "lat": 55.541632,
      "lon": 24.107633,
      "source": "viada-web"
    },
    {
      "network": "Viada",
      "address": "Kauno r., Ilgakiemio k., Prienų g. 22",
      "city": "",
      "lat": 54.774119,
      "lon": 23.889722,
      "source": "viada-web"
    },
    {
      "network": "Viada",
      "address": "Panevėžys, Ramygalos g. 155",
      "city": "",
      "lat": 55.703742,
      "lon": 24.38079,
      "source": "viada-web"
    },
    {
      "network": "Viada",
      "address": "Biržai, Pasvalio g. 1B",
      "city": "",
      "lat": 56.202143,
      "lon": 24.737832,
      "source": "viada-web"
    },
    {
      "network": "Viada",
      "address": "Plungė, Žaltakalnio g. 10",
      "city": "",
      "lat": 55.898651,
      "lon": 21.840158,
      "source": "viada-web"
    },
    {
      "network": "Viada",
      "address": "Panevėžio r., Šilagalis, Aplinkkelio g. 5",
      "city": "",
      "lat": 55.670113,
      "lon": 24.349612,
      "source": "viada-web"
    },
    {
      "network": "Viada",
      "address": "Kelmė, Kęstučio g. 1B",
      "city": "",
      "lat": 55.633679,
      "lon": 22.942879,
      "source": "viada-web"
    }
  ]
}